case_year,gu,dong,addr_lat,addr_lng,floor,brand_name,build_area,land,price,hammer,date_ym,result,ham_per,comment_val
2020,성동구,성수동1가,37.53881010587519,127.04481234694944,29.0,트리마제아파트,84.5402,1,3100000000,,202108,0,,0
2020,성동구,홍익동,37.56747247983817,127.03138575255244,10.0,청계대주파크빌아파트,42.47,1,391000000,,202108,0,,1
2019,서대문구,연희동,37.56526929587693,126.930191172111,3.0,브라운스톤연희오피스텔,17.01,1,195000000,,202108,0,,1
2019,서대문구,연희동,37.56526929587693,126.930191172111,3.0,브라운스톤연희오피스텔,16.62,1,190000000,,202108,0,,1
2020,서대문구,홍제동,37.58727571414443,126.94291823546072,6.0,제일아파트,80.11,0,478000000,,202108,0,,1
2020,은평구,구산동,37.60556153457049,126.9053825355327,2.0,경남아너스빌아파트,84.69,1,415000000,,202108,0,,1
2020,용산구,원효로4가,37.5327852,126.9538923,2.0,풍전아파트,77.65,0,806000000,,202108,0,,1
2020,마포구,아현동,37.55133280842522,126.95444343850272,5.0,삼환나띠르빌아파트,84.9,1,964000000,,202108,0,,1
2020,마포구,상암동,37.58641584239984,126.88001828221353,14.0,상암월드컵파크12단지아파트,57.36,1,566000000,,202108,0,,1
2020,관악구,신림동,37.473013783934405,126.91504146159107,5.0,한양아파트,84.79,1,523000000,,202108,0,,0
2019,중구,묵정동,37.56078044510535,127.00068814306536,3.0,충무아파트,67.77,1,392000000,,202108,0,,1
2020,서초구,반포동,37.5032064667979,126.999398337486,26.0,래미안퍼스티지아파트,84.93,1,2850000000,,202108,0,,0
2020,관악구,남현동,37.47362217393781,126.97616908845023,10.0,예성그린캐슬2차아파트,84.17,0,305000000,,202108,0,,1
2018,중랑구,면목동,37.58721616429734,127.09609328944109,12.0,면목신성미소지움1차아파트,80.1913,1,470000000,,202108,0,,0
2020,서대문구,홍제동,37.58994573154519,126.94562455181553,-1.0,홍일아파트,200.99,1,862000000,,202108,0,,1
2020,도봉구,쌍문동,37.6614075566338,127.03814709836152,8.0,금강아미움파크타운아파트,68.2097,1,391000000,,202108,0,,1
2020,강서구,화곡동,37.52944377442133,126.85129211068464,2.0,화곡삼익아파트,37.08,1,202500000,,202108,0,,1
2020,영등포구,영등포동4가,37.51887974048499,126.90249672785298,7.0,스퀘어뷰오피스텔,14.4,1,163000000,,202108,0,,0
2020,구로구,구로동,37.498004825505134,126.8916472099548,5.0,순영웰라이빌1차오피스텔,32.725,1,130000000,,202108,0,,0
2020,금천구,시흥동,37.45309975044128,126.91776288312364,13.0,벽산타운3단지아파트,59.94,1,400000000,,202108,0,,0
2019,서대문구,연희동,37.56526929587693,126.930191172111,3.0,브라운스톤연희오피스텔,16.93,1,192000000,,202108,0,,1
2020,강서구,화곡동,37.5425963241767,126.83808922828,3.0,삼호파크빌,46.32,1,290000000,,202108,0,,0
2018,강서구,화곡동,37.5300107,126.83999,6.0,한경빌,11.21,1,61000000,,202108,0,,1
2020,구로구,고척동,37.50656299319736,126.8610595361016,3.0,예주유니츠아파트,39.15,1,226000000,,202108,0,,1
2020,강서구,가양동,37.56634846638711,126.85403041152964,4.0,대림경동아파트,131.4,1,1070000000,,202109,0,,0
2020,강서구,화곡동,37.529116668175526,126.84155875723462,11.0,세교예지안6차오피스텔,25.7,1,181000000,,202109,0,,1
2020,강서구,화곡동,37.534801088633,126.842914619235,4.0,푸른풍경채,29.51,1,261000000,,202109,0,,1
2020,금천구,시흥동,37.4608828939436,126.905948308902,4.0,가온빌리지,29.74,1,178000000,,202109,0,,1
2020,양천구,신월동,37.5351258220711,126.832055650091,2.0,하나하이츠,53.58,1,212000000,188100000.0,202107,1,89.0,0
2020,영등포구,영등포동1가,37.5177494284636,126.91347953514,9.0,메트로가든오피스텔,12.97,1,143000000,120660000.0,202107,1,84.0,1
2020,마포구,서교동,37.55093530307955,126.91378068787876,14.0,메세나폴리스아파트,142.034,1,1733000000,1869999999.0,202107,1,108.0,1
2020,강남구,청담동,37.52164289524498,127.05441633918709,12.0,청담동양파라곤아파트,171.1005,1,3440000000,3953999000.0,202107,1,115.0,0
2020,서초구,반포동,37.49516948281842,126.99848130421198,2.0,아르드빌아파트,200.4,1,1860000000,1595000000.0,202107,1,86.0,0
2020,마포구,망원동,37.55590103899917,126.90709883219392,5.0,뉴서울아파트,53.01,1,340000000,430100000.0,202107,1,127.0,0
2020,용산구,이촌동,37.51804949833176,126.97870235870823,8.0,점보아파트,177.62,1,1620000000,1700000000.0,202107,1,105.0,0
2020,강북구,수유동,37.6320836,127.0225611,9.0,수유역 하이 시티,12.19,1,110000000,91336000.0,202107,1,83.0,0
2020,중랑구,망우동,37.59841576963084,127.106276496023,1.0,한울네세창아파트,84.76,1,344000000,420000001.0,202107,1,122.0,0
2020,노원구,월계동,37.63161180463315,127.04396510082675,4.0,월계흥화브라운빌아파트,29.9,1,215000000,249000100.0,202107,1,116.0,1
2019,강북구,미아동,37.61578861222446,127.03899931774002,7.0,스카이빌아파트,163.91,1,403000000,603000000.0,202106,1,150.0,0
2020,광진구,자양동,37.536430136229406,127.06828503255436,8.0,대동아파트,84.65,1,935000000,1297999990.0,202106,1,139.0,0
2020,성북구,정릉동,37.617168158918965,127.00094238012554,8.0,피오레1단지아파트,47.3,1,272000000,302500000.0,202106,1,111.0,1
2020,성북구,종암동,37.5985419,127.0355858,12.0,노블레스타워,74.01,1,570000000,581110000.0,202106,1,102.0,0
2019,구로구,신도림동,37.507333355246935,126.87647145886532,3.0,미성아파트,66.03,1,422000000,851770000.0,202106,1,202.0,0
2020,관악구,봉천동,37.486898715833526,126.95057037758,3.0,관악한일유앤아이아파트,84.866,1,730000000,803700000.0,202106,1,110.0,1
2020,강남구,일원동,37.48427445597936,127.08261499474952,5.0,샘터마을아파트,6.72,1,1010000000,1010000000.0,202106,1,100.0,1
2020,양천구,목동,37.54012180358096,126.86902642057385,6.0,목동웨스트빌아파트(102동),77.34899999999998,1,566000000,731000000.0,202106,1,129.0,1
2019,동대문구,장안동,37.567399733963946,127.06742587284536,4.0,공감대아파트,109.1,1,460000000,560000000.0,202106,1,122.0,0
2020,송파구,신천동,37.52122940631966,127.10998251166994,2.0,파크리오아파트,121.63,1,2042000000,2503000000.0,202106,1,123.0,1
2020,성북구,돈암동,37.59480874606793,127.0103177857626,4.0,한신한진아파트,84.87,1,710000000,787920000.0,202106,1,111.0,0
2020,중랑구,신내동,37.6109238462656,127.09945808029464,14.0,신내데시앙1단지아파트,23.37,1,68000000,80888800.0,202106,1,119.0,1
2020,강동구,명일동,37.5537375803272,127.1521105266878,13.0,신동아아파트,127.33,1,1800000000,1765800000.0,202106,1,98.0,0
2020,성북구,정릉동,37.60377540136136,127.01039150184096,8.0,중앙하이츠빌2단지아파트,84.6824,1,690000000,716923000.0,202106,1,104.0,0
2020,노원구,월계동,37.61850427769218,127.06022278935126,4.0,삼창아파트,22.24,1,116000000,143888800.0,202106,1,124.0,1
2020,강서구,화곡동,37.53499339024821,126.85968077967593,7.0,상진지오벨리아파트,64.78,1,300000000,379000000.0,202106,1,126.0,1
2019,강남구,도곡동,37.49377988299789,127.05114053767764,1.0,도곡렉슬아파트,119.8906,1,2235000000,2948999000.0,202106,1,132.0,1
2020,서초구,방배동,37.48988684384297,126.9968079104466,12.0,방배2차e편한세상아파트,81.68,1,935000000,941111000.0,202106,1,101.0,1
2020,강서구,화곡동,37.5329002003833,126.843081526584,5.0,남광파크빌,33.74,1,150000000,140133000.0,202106,1,93.0,1
2020,강남구,대치동,37.4933933298452,127.067352502571,6.0,"한보미도맨션1,2차아파트",141.32,1,2930000000,3661227000.0,202106,1,125.0,0
2020,서대문구,홍제동,37.595098713864,126.95236498206906,1.0,유원하나아파트,72.34,1,425000000,501150000.0,202106,1,118.0,1
2020,서대문구,홍제동,37.578354228651605,126.95129791106297,11.0,홍제삼성래미안아파트,32.76,1,508000000,541050000.0,202106,1,107.0,0
2020,서대문구,홍제동,37.58908623482549,126.94980541681386,6.0,현대그린아파트,84.96,1,690000000,732120000.0,202106,1,106.0,0
2020,송파구,가락동,37.496362781444354,127.11636355547824,15.0,가락금호아파트,59.91,1,1025000000,1025000000.0,202106,1,100.0,0
2020,송파구,문정동,37.490621445698174,127.13029006224446,14.0,문정래미안아파트,120.97,1,1450000000,1791000000.0,202106,1,124.0,0
2020,강동구,성내동,37.528210947773246,127.12734157395214,2.0,노블레스트아파트,101.32,1,700000000,720000000.0,202106,1,103.0,0
2020,광진구,자양동,37.52859963952297,127.07828335508935,14.0,자양5차현대아파트,38.47,1,484500000,540990000.0,202106,1,112.0,1
2020,송파구,가락동,37.496362781444354,127.11636355547824,20.0,가락금호아파트,85.0,1,1390000000,1481000000.0,202106,1,107.0,0
2020,영등포구,당산동,37.5275793,126.9079681,6.0,훼미리하우스138,14.28,1,136000000,121808000.0,202106,1,90.0,0
2019,용산구,이촌동,37.520270965498405,126.96876977330632,6.0,보람더하임아파트,84.5839,1,1385000000,1385116000.0,202106,1,100.0,1
2020,마포구,대흥동,37.54473232045174,126.94257048117984,20.0,대흥동태영아파트,114.93,1,1570000000,1703000000.0,202106,1,108.0,0
2020,은평구,신사동,37.6003563867228,126.90410723608812,6.0,씨티아파트,58.09,1,356000000,480000000.0,202106,1,135.0,0
2020,노원구,상계동,37.65978249602079,127.06915944285508,6.0,노원아이파크아파트,139.28,1,703000000,783000000.0,202105,1,111.0,1
2020,성북구,석관동,37.61109107098002,127.06669061595105,2.0,중앙하이츠아파트,42.43,1,269000000,281100000.0,202105,1,104.0,1
2020,강북구,미아동,37.6208003962173,127.011390667734,1.0,벽산라이브파크아파트,84.89,1,567000000,625380000.0,202105,1,110.0,0
2020,성북구,하월곡동,37.59908319821899,127.0421024156266,8.0,월곡래미안루나밸리아파트,84.88,1,890000000,998980000.0,202105,1,112.0,0
2020,중랑구,면목동,37.57625784429658,127.08978501857524,1.0,면목현대아파트,72.63,1,549000000,592950000.0,202105,1,108.0,0
2020,중랑구,면목동,37.58055114629927,127.0835590232765,17.0,면목두산2단지아파트,134.2,1,769000000,889999990.0,202105,1,116.0,0
2020,관악구,봉천동,37.4863101122049,126.947902337685,2.0,은선파인빌아파트,147.4,1,615000000,651110000.0,202105,1,106.0,1
2020,관악구,신림동,37.484802236151786,126.92808505494573,11.0,프라비다트라움오피스텔,14.06,1,125000000,124000000.0,202105,1,99.0,0
2020,종로구,평창동,37.60968749956977,126.97592188163308,3.0,엘리시아아파트,236.07,1,1327000000,1233300000.0,202105,1,93.0,0
2019,동대문구,용두동,37.57909550883343,127.0306434504255,8.0,용두롯데캐슬리치아파트,59.9858,1,745000000,961060000.0,202105,1,129.0,1
2020,성북구,안암동1가,37.58930715224304,127.0237499935912,8.0,안암래미안아파트,114.926,1,860000000,974270000.0,202105,1,113.0,1
2020,성북구,하월곡동,37.61077190927401,127.03899216768632,2.0,꿈의숲푸르지오아파트,59.65,1,595000000,735790000.0,202105,1,124.0,0
2020,중랑구,면목동,37.57949000687921,127.0940319992992,3.0,한양수자인사가정파크아파트,13.32,1,143000000,157888880.0,202105,1,110.0,1
2020,중랑구,신내동,37.60349002755963,127.09808922984232,15.0,중앙하이츠아파트,84.97,1,569000000,606100000.0,202105,1,107.0,1
2020,노원구,상계동,37.666082443296055,127.0686665870375,4.0,한신1차아파트,45.44,1,261000000,415999999.0,202105,1,159.0,0
2020,노원구,하계동,37.63248141876827,127.07130024002107,4.0,청솔아파트,49.5,1,510000000,564970000.0,202105,1,111.0,1
2020,구로구,구로동,37.503499308748616,126.88420893889264,14.0,신도림롯데아파트,131.3,1,940000000,1188990000.0,202105,1,126.0,0
2019,서대문구,홍제동,37.59643479146676,126.94996353996036,12.0,마체스터아파트,140.51,1,568000000,753009001.0,202105,1,133.0,0
2020,관악구,봉천동,37.49410609524941,126.92817564601104,9.0,보라매삼성아파트,84.84,1,747000000,800000000.0,202105,1,107.0,1
2020,성동구,상왕십리동,37.57063458535271,127.02552237747308,17.0,센트럴큐브오피스텔,24.76,1,320000000,310600000.0,202105,1,97.0,0
2020,강동구,고덕동,37.55754058724754,127.163640747562,9.0,고덕그라시움아파트,59.508,1,1290000000,1362511001.0,202105,1,106.0,0
2020,송파구,마천동,37.495181162392896,127.15096037462736,10.0,현대그린빌아파트,46.8,1,390000000,471990000.0,202105,1,121.0,0
2020,관악구,남현동,37.4748991777834,126.977561481002,7.0,관악산센텀아파트,72.41,1,602000000,618263800.0,202105,1,103.0,1
2020,송파구,방이동,37.5156743751722,127.115076895943,16.0,성희파크빌오피스텔,14.671,1,205000000,177800000.0,202105,1,87.0,0
2020,송파구,방이동,37.5143844900996,127.135158949349,6.0,올림픽선수기자촌아파트,147.44,1,2470000000,2611000000.0,202105,1,106.0,1
2019,서대문구,천연동,37.56756304357773,126.95844959649769,10.0,천연뜨란채아파트,55.85,1,580000000,750009999.0,202104,1,129.0,0
2020,은평구,대조동,37.61102668384194,126.92799992967004,3.0,미래하임아파트(6-19번지),53.23,1,241000000,207770000.0,202104,1,86.0,1
2020,동작구,대방동,37.50959403999071,126.92615886652068,13.0,성원아파트,42.16,1,503000000,635000000.0,202104,1,126.0,1
2020,강서구,방화동,37.57088920087895,126.80679480031296,12.0,방화도시개발12단지아파트,59.34,1,461000000,588899001.0,202104,1,128.0,1
2020,영등포구,양평동3가,37.53139883211741,126.89177315090926,14.0,거성파스텔아파트,131.34,1,950000000,1036100000.0,202104,1,109.0,1
2020,용산구,이촌동,37.52329825819343,126.95960314236872,-1.0,강서맨션,59.04,0,120000000,150000000.0,202104,1,125.0,1
2020,서초구,방배동,37.477675406635306,127.00511465214284,18.0,방배래미안아트힐아파트,42.54,1,600000000,637887000.0,202104,1,106.0,1
2020,도봉구,방학동,37.657196,127.0260003,15.0,청구아파트,84.97,1,386000000,563900000.0,202104,1,146.0,0
2020,성동구,성수동2가,37.54776878074889,127.06084027970644,12.0,E-아름다운세상아파트,70.71,1,699000000,789300000.0,202104,1,113.0,1
2020,도봉구,쌍문동,37.6558925691182,127.028911637153,15.0,한양6차아파트,83.86,1,426000000,577700000.0,202104,1,136.0,0
2020,강북구,미아동,37.61878583148684,127.0343885577369,12.0,꿈의숲해링턴플레이스아파트,99.93,1,1070000000,1121110000.0,202104,1,105.0,0
2020,성동구,금호동1가,37.5524558119104,127.026716898361,4.0,벽산아파트,84.82,1,869000000,1185699900.0,202104,1,136.0,1
2020,강동구,천호동,37.5476612371701,127.140487809605,3.0,용명브릿지아파트,80.0,1,450000000,828920000.0,202104,1,184.0,1
2020,송파구,방이동,37.5143844900996,127.135158949349,15.0,올림픽선수기자촌아파트,41.53,1,901000000,828920000.0,202104,1,92.0,1
2020,송파구,오금동,37.5098927651172,127.130549760233,6.0,노블하우스,75.04,1,442000000,539999000.0,202104,1,122.0,1
2020,중랑구,망우동,37.60235608221786,127.1049548774998,11.0,중랑숲리가아파트,84.956,1,625000000,711000000.0,202104,1,114.0,0
2020,양천구,신월동,37.5165147683659,126.839196427557,2.0,보금자리아파트,52.26,1,190000000,155900000.0,202104,1,82.0,0
2020,구로구,구로동,37.4865824,126.8883564,1.0,아파트,31.41,1,107000000,168100000.0,202104,1,157.0,1
2020,양천구,신정동,37.515766646451446,126.87637159349308,22.0,목동삼성아파트,84.77,1,1090000000,1231900000.0,202104,1,113.0,0
2020,서대문구,대현동,37.55763850929745,126.94317173146912,16.0,혜우아파트,98.89,0,472000000,611000000.0,202104,1,129.0,1
2020,광진구,자양동,37.53001863575139,127.08979291966492,11.0,광진하우스토리한강아파트,143.36,1,1390000000,1828000000.0,202104,1,132.0,0
2020,송파구,장지동,37.483749408927885,127.132765558978,3.0,송파파인타운3단지아파트,84.93,1,1030000000,1301510000.0,202104,1,126.0,1
2020,성북구,정릉동,37.6099372228044,127.010918998906,3.0,고은빌라,46.78,1,151000000,125330000.0,202104,1,83.0,0
2020,도봉구,도봉동,37.68669283179385,127.04754842018184,3.0,도봉한신아파트,84.94,1,534000000,601199990.0,202104,1,113.0,0
2020,강동구,암사동,37.5501727809754,127.128202771627,6.0,암사동양덱스빌아파트,84.68,1,592000000,610000000.0,202104,1,103.0,0
2020,노원구,공릉동,37.627602111566674,127.08679264474586,9.0,공릉해링턴플레이스아파트,134.914,1,902000000,950000000.0,202104,1,105.0,0
2020,동작구,신대방동,37.49226761995813,126.9116092277599,3.0,신대방우성아파트,78.54,1,626000000,632777000.0,202104,1,101.0,1
2020,강남구,도곡동,37.489843894762735,127.03781204801123,5.0,도곡아이파크3차아파트,187.215,1,2625000000,2330000000.0,202104,1,89.0,1
2020,광진구,자양동,37.53635334084634,127.0745905040622,6.0,자양7차우성아파트,59.94,1,944000000,1059999999.0,202104,1,112.0,0
2020,성북구,길음동,37.60968453435855,127.02071216425595,14.0,길음뉴타운5단지래미안아파트,59.75,1,800000000,823888888.0,202104,1,103.0,0
2020,동대문구,장안동,37.5689333,127.0703215,6.0,서희스타힐스,70.84,0,460000000,435600000.0,202104,1,95.0,0
2020,노원구,상계동,37.64622543251093,127.06095222418207,15.0,미도아파트,87.57,1,697000000,755510000.0,202104,1,108.0,1
2020,성북구,동선동1가,37.59304800415842,127.01916535630008,7.0,코아루센타시아오피스텔,113.05,1,582000000,704000000.0,202104,1,121.0,0
2020,노원구,상계동,37.66391186829532,127.05704179469735,14.0,상계주공10단지아파트,61.52,1,573000000,711110000.0,202104,1,124.0,0
2020,강남구,대치동,37.501569317172425,127.0602033861242,1.0,대치주성아파트,67.13,1,1070000000,1282500000.0,202104,1,120.0,0
2020,구로구,구로동,37.48850923587122,126.8907993161222,17.0,한신휴플러스아파트,58.03,1,668000000,732600000.0,202104,1,110.0,1
2020,중구,신당동,37.5465805104561,127.00703402265,2.0,남산타운아파트,84.88,1,1020000000,1110820000.0,202104,1,109.0,0
2020,관악구,신림동,37.484802236151786,126.92808505494573,11.0,프라비다트라움오피스텔,14.06,1,125000000,121211000.0,202104,1,97.0,0
2019,성동구,옥수동,37.543277993087,127.01154746373398,1.0,옥수극동아파트,142.26,1,1250000000,1625052090.0,202104,1,130.0,0
2019,강서구,염창동,37.54886600701802,126.87067122811288,12.0,e편한세상염창아파트,51.756,1,752000000,911440000.0,202104,1,121.0,0
2019,강서구,염창동,37.54886600701802,126.87067122811288,16.0,e편한세상염창아파트,84.9783,1,1100000000,1365000000.0,202104,1,124.0,0
2020,강서구,등촌동,37.55983801962357,126.84703048681558,3.0,미주진로아파트,84.96,1,765000000,808000000.0,202104,1,106.0,0
2020,양천구,목동,37.5374373835504,126.87622720534657,14.0,목동신시가지2단지아파트,95.67,1,1703000000,1810300000.0,202104,1,106.0,0
2020,강동구,천호동,37.544119453670014,127.13969359633668,10.0,천호우림루미아트1차아파트,84.88,1,549000000,726777700.0,202104,1,132.0,0
2020,강동구,둔촌동,37.53540177717921,127.14823999311191,6.0,프라자아파트,10.91,1,98000000,135666000.0,202104,1,138.0,1
2020,양천구,신월동,37.51915072198694,126.84566566865897,7.0,신정뉴타운두산위브아파트,59.78,1,619000000,780250000.0,202104,1,126.0,0
2019,서초구,서초동,37.4934745902012,127.01544217494592,6.0,서초리시온아파트,49.92,1,446000000,503300000.0,202104,1,113.0,1
2020,강서구,화곡동,37.5301689161864,126.84903249539,8.0,산내들아파트,27.77,1,186000000,85550000.0,202103,1,46.0,1
2020,은평구,불광동,37.6251744779902,126.924448583611,4.0,스카이힐튼,39.21,1,217000000,222000000.0,202103,1,102.0,0
2020,마포구,중동,37.5740789062302,126.90187125021704,8.0,DMC마포청구아파트,42.3,1,385000000,467999000.0,202103,1,122.0,1
2020,마포구,창전동,37.55268800939353,126.9321392332497,6.0,신촌금호아파트,84.95,1,905000000,963987360.0,202103,1,107.0,0
2020,송파구,방이동,37.5084066,127.1234874,3.0,코오롱아파트,84.95,1,1080000000,1485300000.0,202103,1,138.0,0
2019,강서구,방화동,37.57429846387405,126.8174914797613,1.0,장미아파트,49.2,1,344000000,467000000.0,202103,1,136.0,1
2019,강서구,등촌동,37.56236253032433,126.84836542054995,1.0,등촌주공10단지아파트,58.14,1,578000000,735373000.0,202103,1,127.0,0
2020,영등포구,여의도동,37.52651802289671,126.92983700143964,9.0,공작아파트,22.91,1,350000000,350000000.0,202103,1,100.0,1
2020,서대문구,연희동,37.57257218684978,126.92773359243311,2.0,은하아파트,49.59,1,215000000,235700000.0,202103,1,110.0,0
2020,은평구,수색동,37.5853715400978,126.90029514394868,11.0,수색진흥엣세벨아파트,57.5033,1,599000000,648900000.0,202103,1,108.0,1
2020,영등포구,영등포동1가,37.5177494284636,126.91347953514,5.0,메트로가든오피스텔,12.06,1,138000000,92900000.0,202103,1,67.0,0
2020,동작구,상도동,37.49683626864336,126.94925543680915,14.0,힐스테이트상도프레스티지아파트,84.884,1,1216000000,1334612600.0,202103,1,110.0,0
2019,노원구,상계동,37.67735437849277,127.0572685990088,2.0,극동늘푸른아파트,84.514,1,472000000,665000000.0,202103,1,141.0,0
2020,노원구,공릉동,37.62726810471624,127.06861273855571,1.0,공릉3단지라이프아파트,49.5,1,322000000,478310000.0,202103,1,149.0,0
2020,성북구,정릉동,37.61519635910985,127.01020280769085,7.0,정릉e편한세상1차아파트,57.28,1,351000000,361001000.0,202103,1,103.0,1
2020,성북구,삼선동3가,37.58811584577207,127.01358447191726,2.0,제일아파트,28.31,1,148000000,148000000.0,202103,1,100.0,1
2020,금천구,시흥동,37.46327871273526,126.90944597880508,19.0,삼익아파트,114.48,1,560000000,560480000.0,202103,1,100.0,0
2020,구로구,구로동,37.48934033417104,126.88926030675862,2.0,구로두산아파트,44.64,1,448000000,486770000.0,202103,1,109.0,1
2019,서대문구,연희동,37.56526929587693,126.930191172111,3.0,브라운스톤연희오피스텔,16.6,1,190000000,127000000.0,202103,1,67.0,0
2020,서대문구,홍제동,37.58712665739875,126.94791367267888,3.0,제니스아파트,73.27,1,488000000,527273350.0,202103,1,108.0,0
2020,용산구,한강로3가,37.525432807212,126.95982145971078,11.0,한강로우림필유아파트,84.99,1,1270000000,1412000000.0,202103,1,111.0,0
2020,서대문구,홍은동,37.57917701046549,126.93165783430692,10.0,두산위브아파트,84.84,1,543000000,682700000.0,202103,1,126.0,0
2019,성동구,옥수동,37.540023930362445,127.01624382013225,2.0,옥수하이츠아파트,114.78,1,1420000000,1721300000.0,202103,1,121.0,0
2020,강동구,암사동,37.55142743879978,127.1342661560754,3.0,효정하나플러스아파트,81.46,1,487000000,600000000.0,202103,1,123.0,0
2020,노원구,하계동,37.63370157637949,127.06786639508351,9.0,장미아파트,49.5,1,465000000,616790000.0,202103,1,133.0,1
2020,노원구,상계동,37.65496093751854,127.06830730561792,22.0,상계중앙하이츠2차아파트,84.6,1,613000000,738800000.0,202103,1,121.0,0
2020,노원구,중계동,37.64784339424072,127.0846451091211,8.0,중계현대2차아파트,84.78,1,491000000,623000777.0,202103,1,127.0,0
2020,도봉구,방학동,37.65683833800087,127.02174066654904,1.0,우성2차아파트,84.98,1,383000000,487000777.0,202103,1,127.0,0
2020,노원구,하계동,37.6368486609804,127.06638280483796,15.0,현대우성아파트,84.95,1,810000000,1089450000.0,202103,1,135.0,0
2019,중구,충무로5가,37.56330143539773,127.00026711716394,6.0,충무로엘크루메트로시티II오피스텔,35.55,1,320000000,305550000.0,202103,1,95.0,1
2020,동작구,대방동,37.50741732947618,126.9249146399778,11.0,대방대림아파트,134.25,1,1474000000,1499999999.0,202103,1,102.0,0
2020,강남구,개포동,37.481287460486016,127.06397918908269,6.0,래미안블레스티지아파트,59.88800000000001,1,1650000000,1889999999.0,202103,1,115.0,0
2020,강서구,화곡동,37.53730482084038,126.83552773410575,7.0,요산페어뷰아파트,74.04,1,367000000,389110000.0,202103,1,106.0,0
2020,관악구,봉천동,37.48959290678911,126.95555290073528,21.0,성현동아아파트,114.69,1,830000000,1011000000.0,202103,1,122.0,0
2019,종로구,평창동,37.60997971216521,126.97739864484936,8.0,평창롯데캐슬로잔아파트,239.484,1,1930000000,1619900000.0,202102,1,84.0,1
2020,구로구,구로동,37.49103114570664,126.8898186677923,11.0,극동아파트,82.17,1,442000000,545777000.0,202102,1,123.0,0
2020,강서구,화곡동,37.55030320714841,126.84876895883323,12.0,서광프리메라오피스텔,83.7,1,479000000,505610000.0,202102,1,106.0,0
2020,구로구,개봉동,37.494755469491736,126.8544503066192,21.0,삼환아파트,114.48,1,553000000,752830000.0,202102,1,136.0,0
2019,영등포구,영등포동1가,37.5177494284636,126.91347953514,8.0,메트로가든오피스텔,12.97,1,148000000,103100000.0,202102,1,70.0,0
2019,영등포구,영등포동1가,37.5177494284636,126.91347953514,8.0,메트로가든오피스텔,12.05,1,138000000,112100000.0,202102,1,81.0,0
2019,영등포구,영등포동1가,37.5177494284636,126.91347953514,9.0,메트로가든오피스텔,12.06,1,138000000,103100000.0,202102,1,75.0,0
2019,영등포구,영등포동1가,37.5177494284636,126.91347953514,4.0,메트로가든오피스텔,12.97,1,145000000,112100000.0,202102,1,77.0,0
2020,강서구,마곡동,37.563896133852296,126.8395847355878,2.0,마곡오드카운티1차오피스텔,19.6437,0,153000000,142890000.0,202102,1,93.0,1
2020,강서구,방화동,37.5730322811952,126.81906125520771,3.0,마곡현대2차아파트,84.95,1,589000000,689130000.0,202102,1,117.0,1
2020,은평구,녹번동,37.59934577916815,126.9383012878966,6.0,청솔아파트,82.27,1,330000000,430370000.0,202102,1,130.0,0
2019,동작구,사당동,37.48949025320988,126.97385282042934,7.0,이수역리가아파트,84.9827,1,1200000000,1459800000.0,202102,1,122.0,1
2019,동작구,사당동,37.48949025320988,126.97385282042934,11.0,이수역리가아파트,84.9827,1,1240000000,1405990000.0,202102,1,113.0,1
2019,중구,인현동2가,37.5637572654471,126.995807593206,10.0,신성상가아파트,64.26,1,292000000,363000000.0,202102,1,124.0,1
2020,양천구,신월동,37.5356790152931,126.825211499934,4.0,신라이프아파트,58.32,1,182000000,199199000.0,202102,1,109.0,0
2020,강서구,방화동,37.57202084074539,126.81068250153008,2.0,마곡서광2차아파트,113.3376,1,624000000,675000000.0,202102,1,108.0,0
2020,양천구,신월동,37.51981166952254,126.84129337354256,4.0,세제뉴타운아파트,57.32,1,300000000,300500000.0,202102,1,100.0,1
2019,양천구,신월동,37.534118231784255,126.8238291655869,1.0,금하뜨라네아파트,90.17,1,330000000,335000000.0,202102,1,102.0,0
2020,은평구,진관동,37.6447938671945,126.92802626967776,1.0,상림마을은평뉴타운10단지아이파크아파트,84.42,1,631000000,790403080.0,202102,1,125.0,0
2020,영등포구,양평동5가,37.54011631266725,126.89210452836102,3.0,양평한신아파트,59.94,1,670000000,839999000.0,202102,1,125.0,0
2020,용산구,이촌동,37.522217315969336,126.96947485046316,2.0,한강대우아파트,84.94,1,1610000000,1783100000.0,202102,1,111.0,0
2020,구로구,고척동,37.50445249441749,126.86230298225573,11.0,센츄리아파트,9.9483,1,72588000,73100000.0,202102,1,101.0,1
2020,송파구,가락동,37.4920912,127.1318672,7.0,가락현대트웰브,84.58,1,705000000,843350000.0,202102,1,120.0,0
2020,도봉구,창동,37.644207293332194,127.05338160929207,9.0,주공17단지아파트,36.34,1,273000000,451990000.0,202102,1,166.0,0
2020,도봉구,도봉동,37.67343741909391,127.04808405179516,14.0,서원아파트,49.77,1,275000000,388989000.0,202102,1,141.0,0
2019,서대문구,연희동,37.56526929587693,126.930191172111,3.0,브라운스톤연희오피스텔,12.77,1,144000000,110125690.0,202102,1,76.0,1
2018,노원구,상계동,37.6702914,127.0598652,2.0,상계주공14단지아파트,45.9,1,255000000,481007700.0,202102,1,189.0,0
2019,광진구,광장동,37.5488156,127.1094838,4.0,현대리버빌,226.75,0,1698000000,1788888888.0,202102,1,105.0,0
2019,송파구,신천동,37.51462275760842,127.10251989035392,26.0,잠실시그마타워아파트,364.04,1,2468000000,2313999000.0,202102,1,94.0,0
2020,성동구,성수동1가,37.54578380383026,127.04247979310723,19.0,갤러리아포레아파트,218.58,1,4500000000,4111000000.0,202102,1,91.0,0
2020,강북구,우이동,37.655423471127314,127.0111421068829,5.0,대우아파트,84.93,1,530000000,618800000.0,202102,1,117.0,0
2020,동대문구,장안동,37.5613697,127.0699248,9.0,장안푸르미에,12.9463,1,126000000,102320000.0,202102,1,81.0,0
2020,동대문구,장안동,37.5613697,127.0699248,6.0,장안푸르미에,12.5803,1,124000000,99519000.0,202102,1,80.0,0
2019,강남구,청담동,37.5245935,127.0553791,5.0,마크힐스2단지,192.86,1,4570000000,1231000000.0,202102,1,27.0,1
2020,강남구,압구정동,37.528938845691336,127.04207653469238,12.0,한양5차아파트,115.24,1,2870000000,3155150000.0,202102,1,110.0,0
2019,강남구,청담동,37.52645070409117,127.05428520716718,13.0,상지리츠빌카일룸2차아파트,244.32,1,6470000000,6011000000.0,202102,1,93.0,0
2020,동작구,상도동,37.495407955595,126.95087235480804,13.0,힐스테이트상도센트럴파크아파트,59.1,1,675000000,702365999.0,202102,1,104.0,1
2019,송파구,풍납동,37.53417863241659,127.11375215442318,10.0,미성맨션,116.965,1,854000000,1328810000.0,202102,1,156.0,0
2020,광진구,자양동,37.5319927348152,127.090962869109,7.0,자양한양아파트,137.45,1,1450000000,1751010000.0,202102,1,121.0,1
2020,송파구,잠실동,37.507445132763934,127.07668689556418,1.0,아시아선수촌아파트,176.048,1,2960000000,3110000000.0,202102,1,105.0,0
2020,성동구,행당동,37.55719849473362,127.0400597786999,17.0,서울숲더샵오피스텔,92.08,0,1420000000,1500000000.0,202102,1,106.0,0
2020,광진구,중곡동,37.57118352927509,127.07961835202246,24.0,성원아파트,59.82,1,385000000,491999990.0,202102,1,128.0,0
2020,송파구,방이동,37.51252133028157,127.11825266437712,2.0,방이금호어울림아파트,84.3,1,844000000,1085550000.0,202102,1,129.0,0
2020,영등포구,대림동,37.49562813896592,126.90001199928136,14.0,우성2차아파트,79.91,1,573000000,631000000.0,202101,1,110.0,0
2020,강서구,화곡동,37.53148134054277,126.84598306985274,4.0,성재센트리움아파트(343-35),30.69,1,170000000,164950000.0,202101,1,97.0,1
2020,강서구,화곡동,37.5300107,126.83999,8.0,한경빌,15.55,1,94000000,76200000.0,202101,1,81.0,1
2018,성북구,석관동,37.61265403293098,127.06870350882149,17.0,두산아파트,84.9,1,474000000,839900000.0,202101,1,177.0,1
2019,송파구,잠실동,37.51275285867244,127.0884194493474,27.0,리센츠아파트,62.11,1,1250000000,570000100.0,202101,1,46.0,1
2019,송파구,마천동,37.50002597088506,127.14439283864192,2.0,신동아아파트,59.88,1,465000000,605899990.0,202101,1,130.0,0
2020,동대문구,청량리동,37.5834583679649,127.046441099047,3.0,미주아파트,101.62,1,980000000,1153300000.0,202101,1,118.0,1
2020,성북구,하월곡동,37.6019886657691,127.040169848552,34.0,코업스타클래스오피스텔,170.45,1,1200000000,1355000000.0,202101,1,113.0,1
2020,동대문구,장안동,37.56738600803503,127.06934558658595,2.0,정암아파트,42.48,1,208000000,170400000.0,202101,1,82.0,1
2020,강북구,미아동,37.6184432414034,127.013039501497,9.0,SK북한산시티아파트,59.98,1,510000000,619900000.0,202101,1,122.0,1
2019,구로구,구로동,37.49817003247293,126.8919998020952,20.0,대림역포스큐오피스텔,14.579,1,126000000,110970000.0,202101,1,88.0,0
2020,금천구,가산동,37.47872555659634,126.89119908060152,16.0,가산양우내안애애플오피스텔,12.04,1,121000000,112000000.0,202101,1,93.0,1
2020,영등포구,영등포동2가,37.5223812642785,126.91076261984476,7.0,두리하임오피스텔,27.18,1,227000000,215000000.0,202101,1,95.0,1
2020,구로구,개봉동,37.494755469491736,126.8544503066192,13.0,삼환아파트,114.48,1,560000000,681110000.0,202101,1,122.0,0
2020,영등포구,영등포동1가,37.5177494284636,126.91347953514,10.0,메트로가든오피스텔,12.4,1,143000000,122000000.0,202101,1,85.0,1
2020,영등포구,신길동,37.502962849901806,126.9096061654484,15.0,신길뉴타운한화꿈에그린아파트,84.5802,1,1010000000,1200011000.0,202101,1,119.0,0
2020,서대문구,연희동,37.56526929587693,126.930191172111,3.0,브라운스톤연희오피스텔,16.01,1,182000000,74547000.0,202101,1,40.95989010989011,1
2020,성동구,금호동2가,37.55129219494881,127.0245391485163,12.0,래미안하이리버아파트,84.98,1,1300000000,1321500000.0,202101,1,102.0,0
2019,서대문구,홍은동,37.58249421208605,126.93438100167948,-1.0,교수아파트,100.44,0,313000000,241000000.0,202012,1,77.0,0
2019,은평구,진관동,37.6355766628199,126.927808571598,3.0,은평뉴타운우물골아파트(두산위브7단지),101.49,0,705000000,830100000.0,202012,1,118.0,1
2019,은평구,진관동,37.62727771508966,126.93401993003783,13.0,은평뉴타운폭포동아파트(힐스테이트D10),101.49,0,834000000,963100000.0,202012,1,115.0,1
2020,은평구,진관동,37.6355766628199,126.927808571598,2.0,은평뉴타운우물골아파트(두산위브7단지),134.63,0,771000000,892000000.0,202012,1,116.0,0
2019,서대문구,홍은동,37.59543612299509,126.9344828727542,1.0,서강2차아파트,139.58,1,437000000,459150000.0,202012,1,105.0,1
2020,은평구,구산동,37.61150388814018,126.90924390816195,5.0,구산브라운스톤아파트,59.97,1,408000000,541661600.0,202012,1,133.0,0
2019,광진구,중곡동,37.56886493681501,127.08649352870772,3.0,SK아파트,58.43,1,478000000,567100000.0,202012,1,119.0,1
2020,강동구,길동,37.53801268222193,127.14982016649486,6.0,GS강동자이아파트,126.43,1,1120000000,1265500000.0,202012,1,113.0,0
2020,강동구,성내동,37.525471590010746,127.12595336221632,14.0,현대토파즈아파트,187.41,1,1220000000,1500990000.0,202012,1,123.0,0
2019,동작구,상도동,37.49683626864336,126.94925543680915,10.0,힐스테이트상도프레스티지아파트,59.928,1,822000000,1046990000.0,202012,1,127.0,0
2019,양천구,신월동,37.51709330487288,126.83277476226289,4.0,신월시영아파트,43.2,1,300000000,571230000.0,202012,1,190.0,1
2020,강서구,화곡동,37.529393873932,126.842680458901,6.0,풍원팰리스오피스텔,43.8,1,260000000,225000000.0,202012,1,87.0,1
2020,강서구,내발산동,37.5536090289372,126.84059702947758,1.0,원다벨라빌아파트,84.0152,1,505000000,405000000.0,202012,1,80.0,0
2019,서대문구,홍은동,37.580494895236896,126.93275817507512,7.0,로하스아파트,65.01,1,277000000,310000000.0,202012,1,112.0,1
2019,은평구,갈현동,37.61803477966208,126.90993370211308,3.0,한솔아파트,84.93,1,344000000,386000000.0,202012,1,112.0,0
2019,중구,회현동1가,37.55825987564111,126.9819232717916,13.0,남산롯데캐슬아이리스아파트,187.44,1,1603000000,1518100000.0,202012,1,95.0,1
2019,서대문구,연희동,37.56526929587693,126.930191172111,2.0,브라운스톤연희오피스텔,16.95,1,192000000,163000000.0,202012,1,85.0,1
2019,서대문구,연희동,37.56526929587693,126.930191172111,3.0,브라운스톤연희오피스텔,12.03,1,136000000,108800000.0,202012,1,80.0,1
2020,마포구,창전동,37.55005627887381,126.93073384439178,14.0,마포웨스트리버태영데시앙아파트,102.7,1,1420000000,1582000000.0,202012,1,111.0,0
2020,서초구,서초동,37.5020342,127.0227922,4.0,서초 푸르지오 써밋,52.06,1,1240000000,1182000000.0,202012,1,95.0,1
2020,강동구,길동,37.53687721877203,127.14566207195372,4.0,서한베네치아아파트,83.86,1,505000000,599900000.0,202011,1,119.0,0
2020,양천구,신정동,37.5151104149728,126.866174467076,12.0,목동신시가지13단지아파트,151.76,1,1952000000,1970500000.0,202011,1,101.0,0
2020,구로구,개봉동,37.5004094376531,126.84813342649244,14.0,개봉푸르지오아파트,119.98,1,793000000,911000000.0,202011,1,115.0,0
2019,강남구,청담동,37.52360216335555,127.05719611767924,22.0,청담자이아파트,89.115,1,3100000000,3030300000.0,202011,1,98.0,1
2019,강남구,일원동,37.48471911929594,127.08575421187336,7.0,목련타운아파트,9.07,1,169000000,170010000.0,202011,1,101.0,1
2020,강서구,화곡동,37.55518657785274,126.84804044324358,2.0,우장산롯데캐슬아파트,177.86,1,990000000,1237000000.0,202011,1,125.0,0
2020,구로구,개봉동,37.48908573750681,126.85107816189796,2.0,거성아파트,29.115,1,115000000,105890000.0,202011,1,92.0,1
2020,영등포구,신길동,37.502962849901806,126.9096061654484,13.0,신길뉴타운한화꿈에그린아파트,120.6939,1,1150000000,1265990000.0,202011,1,110.0,0
2020,구로구,오류동,37.49145188155388,126.83879786603394,15.0,영풍마드레빌아파트,84.741,1,541000000,649743360.0,202011,1,120.0,1
2019,송파구,가락동,37.49247416094926,127.12675167124758,8.0,프라임아파트,84.4,1,563000000,766660000.0,202011,1,136.0,1
2019,서초구,방배동,37.4809326806536,126.985528207559,1.0,덕산럭스아파트,142.26,1,1550000000,1377700000.0,202011,1,89.0,0
2019,강서구,화곡동,37.5292444702264,126.840784652778,6.0,효성아파트,51.18,1,168000000,131800000.0,202011,1,78.0,0
2019,강동구,길동,37.53657528822511,127.13747433111482,16.0,강동와이시티오피스텔,13.97,1,126000000,102000010.0,202011,1,81.0,0
2019,노원구,월계동,37.6196879907719,127.056966080257,4.0,송암아파트,58.23,1,280000000,242550000.0,202011,1,87.0,0
2020,동대문구,청량리동,37.5834583679649,127.046441099047,4.0,미주아파트,68.75,1,570000000,630000000.0,202011,1,111.0,1
2020,송파구,가락동,37.49441856684362,127.1215758412106,8.0,송파롯데캐슬파인힐아파트,180.667,1,1148000000,1220000010.0,202011,1,106.0,0
2019,관악구,신림동,37.45903694158076,126.91968237692367,7.0,관악산휴먼시아2단지아파트,84.97,1,575000000,707778770.0,202011,1,123.0,0
2019,동작구,노량진동,37.5075001627655,126.944345294285,20.0,신동아리버파크아파트,59.67,1,655000000,837000000.0,202011,1,128.0,0
2019,양천구,신월동,37.53276676630968,126.83252254697015,8.0,태형아파트,59.76,1,249000000,273400000.0,202011,1,110.0,1
2019,동작구,신대방동,37.4944112827633,126.9155328793478,11.0,보라매파크빌아파트,84.59,1,893000000,1183110000.0,202011,1,132.0,0
2019,구로구,개봉동,37.49207898790344,126.85849463174304,22.0,현대1단지아파트,114.99,1,762000000,861867000.0,202011,1,113.0,0
2019,강동구,성내동,37.53108705692965,127.13375903834604,3.0,한솔애리즈8차아파트,84.74,1,566000000,572000000.0,202011,1,101.0,1
2019,송파구,장지동,37.47689490566791,127.1291809029229,3.0,송파파인타운13단지아파트,84.92,0,1150000000,1410000000.0,202011,1,123.0,0
2019,동대문구,답십리동,37.569341802916576,127.06170904439826,2.0,동아아파트,101.94,1,562000000,732100000.0,202011,1,130.0,0
2020,중랑구,면목동,37.5864566024313,127.07499258585,5.0,형진아파트,84.18,1,430000000,452600000.0,202011,1,105.0,0
2020,동대문구,휘경동,37.58234553389647,127.07329930847096,15.0,휘경동일하이빌아파트,84.99700000000001,1,602000000,787570000.0,202011,1,131.0,1
2020,강북구,미아동,37.627154813024205,127.02873284486026,10.0,그린힐빌라트,198.95,1,710000000,681830000.0,202011,1,96.0,0
2020,동작구,상도동,37.49422878854029,126.93630265266324,1.0,파크뷰아파트,79.44,1,300000000,285880000.0,202011,1,95.0,0
2019,강동구,둔촌동,37.52952723307251,127.1423996981354,15.0,둔촌하이츠아파트,114.69,1,892000000,980010000.0,202011,1,110.0,0
2019,송파구,거여동,37.490325277573454,127.1462331154555,4.0,거여2단지효성동아아파트,101.95,1,950000000,1060100000.0,202011,1,112.0,0
2019,광진구,광장동,37.5522863388233,127.10861918517,2.0,워커힐아파트,226.45,1,2320000000,2187000000.0,202011,1,94.0,0
2020,송파구,문정동,37.490597626696704,127.1354462575153,12.0,문정시영아파트,39.69,1,638000000,731519000.0,202011,1,115.0,0
2020,성북구,돈암동,37.59480874606793,127.0103177857626,6.0,한신한진아파트,66.48,1,377000000,380000800.0,202011,1,101.0,1
2020,강서구,내발산동,37.55140212822092,126.82690398173058,6.0,마곡수명산파크5단지아파트,59.84,1,668000000,712500000.0,202010,1,107.0,1
2020,강서구,염창동,37.5512996032798,126.8674225249956,1.0,염창우성3차아파트,84.96,1,647000000,707070700.0,202010,1,109.0,0
2020,은평구,진관동,37.6460406796935,126.9263254069071,5.0,상림마을은평뉴타운3단지아이파크아파트,84.83,1,649000000,715450000.0,202010,1,110.0,0
2018,강남구,개포동,37.487626247190015,127.0684576812334,2.0,개포주공5단지아파트,61.19,1,1420000000,1773100000.0,202010,1,125.0,0
2019,서초구,서초동,37.4786591686755,127.007701473721,1.0,서초3차대림이편한세상아파트,158.24,1,1585000000,1632999999.0,202010,1,103.0,0
2019,강남구,압구정동,37.5299287,127.034879,4.0,현대아파트,107.64,1,2110000000,2413099999.0,202010,1,114.0,0
2020,양천구,목동,37.53218601468518,126.87676423904634,30.0,목동트윈빌아파트,201.32,1,1400000000,1680090000.0,202010,1,120.0,0
2019,강남구,청담동,37.5281323,127.0488976,3.0,삼호빌라,229.77,1,3124000000,2800000000.0,202010,1,90.0,0
2019,동작구,사당동,37.4817774792531,126.966187633439,3.0,레디앙스아파트,74.47,1,430000000,485000000.0,202010,1,113.0,0
2019,서초구,잠원동,37.512608525630704,127.01400284994098,12.0,신반포10차아파트,54.11,1,1550000000,1661230000.0,202010,1,107.0,0
2018,양천구,신정동,37.50715349874025,126.86367784524776,2.0,세양청마루아파트,84.98,1,575000000,803770000.0,202010,1,140.0,0
2019,광진구,군자동,37.55126880566098,127.0726260748026,2.0,일성파크아파트,84.96,1,611000000,634080000.0,202010,1,104.0,0
2019,강서구,화곡동,37.54942822036064,126.83781756883712,10.0,우장산아이파크이편한세상아파트,84.97,1,936000000,1076400000.0,202010,1,115.0,0
2019,영등포구,영등포동8가,37.526942860717774,126.90589145446374,13.0,메이준오피스텔,12.23,1,127000000,96100000.0,202010,1,76.0,0
2019,구로구,구로동,37.4969788910682,126.89100636938912,12.0,구로그린플러스해담채3오피스텔,13.39,1,130000000,90900000.0,202010,1,70.0,0
2019,강남구,개포동,37.48800349249797,127.06072393382408,6.0,현대3차아파트,163.85,1,2470000000,2910000000.0,202010,1,118.0,0
2019,관악구,신림동,37.46970451940984,126.91910122336526,20.0,임광관악파크아파트,119.96,1,639000000,655700000.0,202010,1,103.0,0
2019,강서구,방화동,37.5809220124094,126.8125392799824,7.0,방화개화아파트,133.98,1,695000000,753750000.0,202010,1,108.0,1
2019,강남구,도곡동,37.48733513266797,127.05283333247247,22.0,타워팰리스3차오피스텔,141.648,1,2210000000,2806880000.0,202010,1,127.0,0
2019,서초구,서초동,37.49333739191532,127.02687336071624,26.0,래미안서초에스티지S아파트,111.01,1,2550000000,2741000000.0,202010,1,107.0,0
2019,구로구,오류동,37.49929163228453,126.83953192156004,20.0,동부골든아파트,42.48,1,200000000,221009000.0,202010,1,111.0,1
2018,성동구,옥수동,37.5449806355556,127.01383916640964,13.0,래미안옥수리버젠아파트,84.81,1,1390000000,1498789000.0,202010,1,108.0,0
2018,도봉구,방학동,37.667675,127.0313373,3.0,태양아파트,81.87,1,233000000,193200000.0,202010,1,83.0,0
2019,강동구,둔촌동,37.52886183634414,127.13823513541897,2.0,그랜드아파트,107.96,1,521000000,608900000.0,202010,1,117.0,0
2019,성북구,석관동,37.60627685061643,127.06385619240235,17.0,래미안아트리치아파트,84.97,1,810000000,924990000.0,202010,1,114.0,0
2019,송파구,잠실동,37.51110428250743,127.0939178657084,33.0,갤러리아팰리스오피스텔,84.445,1,1150000000,1380000000.0,202010,1,120.0,1
2019,송파구,방이동,37.5143844900996,127.135158949349,12.0,올림픽선수기자촌아파트,100.82,1,1670000000,1843500000.0,202010,1,110.0,0
2019,동대문구,장안동,37.5613697,127.0699248,6.0,장안푸르미에,12.9463,1,125000000,115050000.0,202010,1,92.0,0
2019,노원구,중계동,37.65429105475222,127.07355582188104,18.0,벽산아파트(중계3차),85.0,1,611000000,734444400.0,202010,1,120.0,0
2020,송파구,방이동,37.51201959315304,127.1116463834244,9.0,아크로빌아파트,190.14,1,1295000000,1950000000.0,202010,1,151.0,0
2020,성북구,길음동,37.60583919100933,127.02024903938056,6.0,길음래미안1단지아파트,114.98,1,955000000,1088920000.0,202010,1,114.0,0
2020,도봉구,방학동,37.657955145569474,127.02386250683656,9.0,우성1차아파트,83.85,1,380000000,468980000.0,202010,1,123.0,0
2020,성북구,하월곡동,37.60569167122821,127.03469056727768,3.0,아남아파트,84.69,1,449000000,523777000.0,202010,1,117.0,0
2019,서초구,방배동,37.47533962551704,126.98940924623965,1.0,청광아트빌14차아파트,244.84,1,1470000000,1500000000.0,202010,1,102.0,1
2019,서초구,방배동,37.47533962551704,126.98940924623965,2.0,청광아트빌14차아파트,244.84,1,1480000000,1536000000.0,202010,1,104.0,1
2019,구로구,구로동,37.50101503078915,126.88964114783408,2.0,도림두산베어스타워오피스텔,49.77,1,341000000,302990000.0,202010,1,89.0,0
2019,영등포구,대림동,37.49853007255367,126.89459124570745,3.0,아네스트아파트,75.8,1,383000000,313500000.0,202010,1,82.0,1
2020,양천구,목동,37.539140855323375,126.87170749602872,2.0,목동이편한세상아파트,134.77,1,1240000000,1258000000.0,202010,1,101.0,0
2019,서대문구,남가좌동,37.57597354058168,126.91565818949064,4.0,DMC센트레빌아파트,84.98,1,805000000,887060000.0,202010,1,110.0,0
2019,강남구,대치동,37.49808170349893,127.0712174933248,1.0,대치쌍용1차아파트,141.21,1,2199000000,2501001000.0,202010,1,114.0,0
2019,은평구,진관동,37.6355766628199,126.927808571598,2.0,은평뉴타운우물골아파트(두산위브7단지),167.71,0,930000000,933260000.0,202010,1,100.0,1
2020,강서구,등촌동,37.56355649410892,126.84364090076735,13.0,부영아파트,80.64,1,797000000,838080000.0,202010,1,105.0,0
2020,강서구,가양동,37.57041674787212,126.84714016116638,6.0,가양성지2단지아파트,39.6,1,453000000,545799999.0,202010,1,120.0,0
2019,관악구,신림동,37.47052049657024,126.91110579013908,2.0,뉴서울아파트,51.27,1,301000000,410000000.0,202010,1,136.0,1
2019,성동구,성수동1가,37.54578380383026,127.04247979310723,13.0,갤러리아포레아파트,217.86,1,4330000000,4052000000.0,202009,1,94.0,0
2019,도봉구,창동,37.65129667590429,127.05031914775212,15.0,동아아파트,109.5,1,790000000,821899000.0,202009,1,104.0,0
2019,동대문구,회기동,37.590817105663,127.056056369056,11.0,회기역베라체캠퍼스아파트,24.31900000000001,1,261000000,213600000.0,202009,1,82.0,1
2019,도봉구,창동,37.6597461351552,127.04804348725015,4.0,쌍용아파트,59.88,1,556000000,635700000.0,202009,1,114.0,0
2020,중랑구,상봉동,37.593701060937576,127.07975556698248,10.0,SG타워아파트,84.92,1,400000000,432015000.0,202009,1,108.0,0
2020,동대문구,전농동,37.577272417963314,127.06495781882036,9.0,전농우성아파트,115.56,1,613000000,674110000.0,202009,1,110.0,0
2020,성북구,하월곡동,37.61077190927401,127.03899216768632,5.0,꿈의숲푸르지오아파트,114.61,1,803000000,836100000.0,202009,1,104.0,0
2019,서대문구,연희동,37.5678946880066,126.93472433222183,3.0,충우아파트(51-151),105.44,1,438000000,324880000.0,202009,1,74.0,1
2019,서대문구,연희동,37.56526929587693,126.930191172111,3.0,브라운스톤연희오피스텔,12.6,1,143000000,120000000.0,202009,1,84.0,1
2020,용산구,이촌동,37.51730009092861,126.9800034024905,21.0,래미안첼리투스아파트,124.02,1,2900000000,3151000000.0,202009,1,109.0,0
2020,은평구,진관동,37.64417800735758,126.92297333526052,5.0,상림마을은평뉴타운1단지롯데캐슬아파트,134.51,0,837000000,907399000.0,202009,1,108.0,1
2019,동대문구,장안동,37.57106784876167,127.07023759632398,9.0,청솔오피스텔,59.92,1,387000000,335120000.0,202009,1,87.0,0
2019,동대문구,장안동,37.5613697,127.0699248,4.0,장안푸르미에,12.9463,1,124000000,99490000.0,202009,1,80.0,0
2019,동대문구,휘경동,37.58288733293944,127.07133556183088,3.0,주공1단지아파트,84.84,1,565000000,678950000.0,202009,1,120.0,0
2020,강북구,수유동,37.63169695199485,127.02345079988356,21.0,삼호아파트,74.48,1,347000000,351999900.0,202009,1,101.0,0
2020,노원구,공릉동,37.62775789915253,127.07509296994677,9.0,신원아파트,59.59,1,370000000,447270000.0,202009,1,121.0,1
2020,동대문구,답십리동,37.575881093623536,127.06530075116864,7.0,래미안엘파인아파트,59.95,1,612000000,701550000.0,202009,1,115.0,0
2019,성동구,성수동1가,37.54578380383026,127.04247979310723,8.0,갤러리아포레아파트,194.46,1,3630000000,1351999999.0,202009,1,37.0,1
2019,강동구,천호동,37.542263065215465,127.13997301598556,1.0,천호2차이룸아파트,83.81,1,447000000,451999000.0,202009,1,101.0,0
2019,마포구,서교동,37.55093530307955,126.91378068787876,36.0,메세나폴리스아파트,122.867,1,1540000000,1600859999.0,202008,1,104.0,1
2019,서대문구,홍제동,37.58899586575794,126.9413997185943,5.0,홍제현대아파트,35.39,1,270000000,234895000.0,202008,1,87.0,1
2019,마포구,합정동,37.54540285901138,126.91458935120215,6.0,펠리스아트빌아파트,33.2,1,187000000,187000000.0,202008,1,100.0,1
2018,강동구,성내동,37.52444497977686,127.1304438870679,4.0,동남아파트,84.64,1,572000000,527000000.0,202008,1,92.0,0
2019,송파구,거여동,37.48923620803513,127.1438293155778,12.0,거여4단지아파트,59.73,1,739000000,805500000.0,202008,1,109.0,0
2019,서초구,방배동,37.49728058807682,126.98571051367938,6.0,방배리첸시아아파트,75.02,1,750000000,601200000.0,202008,1,80.0,1
2019,동작구,상도동,37.495407955595,126.95087235480804,11.0,힐스테이트상도센트럴파크아파트,118.2086,1,1320000000,1432330000.0,202008,1,109.0,1
2019,양천구,목동,37.5361979979381,126.880098785296,16.0,부영그린타운1차아파트,66.68,1,505000000,474700000.0,202008,1,94.0,1
2020,구로구,고척동,37.50254753855083,126.86056936646122,13.0,서울가든아파트,64.39,1,432000000,529000000.0,202008,1,122.0,0
2019,관악구,신림동,37.48102149435594,126.9131680204436,9.0,삼성오피스텔,65.44,1,387000000,360000000.0,202008,1,93.0,1
2019,영등포구,양평동5가,37.54011631266725,126.89210452836102,13.0,양평한신아파트,84.87,1,794000000,930011000.0,202008,1,117.0,0
2019,강서구,염창동,37.551385613671634,126.87355150504912,13.0,염창힐스테이트아파트,84.90700000000002,1,870000000,952500000.0,202008,1,109.0,0
2019,금천구,독산동,37.46101249911018,126.89306828306788,8.0,금천이랜드해가든아파트,84.935,1,644000000,645111111.0,202008,1,100.0,0
2019,용산구,한남동,37.5345791486464,127.007720797545,11.0,한남리첸시아오피스텔,106.45,1,1190000000,1430000000.0,202008,1,120.0,0
2019,강남구,삼성동,37.51510147913173,127.06199916832664,3.0,아셈아파트,109.32,1,1250000000,1630000000.0,202008,1,130.0,0
2019,구로구,구로동,37.4849142,126.888927,2.0,아파트,7.28,1,25000000,20300000.0,202008,1,81.0,1
2019,서초구,우면동,37.45896787535628,127.0250469607207,3.0,LH서초5단지아파트,84.95,0,904000000,1131000000.0,202008,1,125.0,0
2019,중랑구,신내동,37.60852627362763,127.0962475430556,7.0,동성3차아파트,129.37,1,602000000,680316000.0,202008,1,113.0,0
2019,노원구,중계동,37.6408111,127.0620411,5.0,중계그린아파트,11.0,1,84000000,103100000.0,202008,1,123.0,0
2020,서대문구,홍제동,37.5858035508961,126.95107567717,11.0,인왕산현대아파트,59.93,1,595000000,702359000.0,202008,1,118.0,0
2020,영등포구,양평동3가,37.52721769777632,126.88834454544272,4.0,경남아너스빌1차아파트,59.9,1,563000000,632111112.0,202008,1,112.0,0
2019,강서구,화곡동,37.53148134054277,126.84598306985274,3.0,성재센트리움아파트(343-35),30.69,1,170000000,136000000.0,202008,1,80.0,1
2018,강서구,등촌동,37.54391753935604,126.86022983444474,4.0,등촌아이파크아파트,134.8836,1,785000000,1032000000.0,202008,1,131.0,0
2019,영등포구,당산동5가,37.53293204452245,126.90283595709072,24.0,당산삼성래미안4차아파트,161.08,1,1650000000,1672741001.0,202008,1,101.0,0
2019,동작구,사당동,37.491549392251954,126.97542160970204,2.0,극동아파트,119.5,1,921000000,1024200000.0,202008,1,111.0,1
2019,강남구,역삼동,37.4972026,127.0336354,5.0,역삼동 EG SoulLeader,13.61,1,211000000,180000000.0,202008,1,85.0,1
2019,강서구,방화동,37.579310767756766,126.81929965175613,9.0,마곡서광아파트,59.67,1,418000000,418580000.0,202008,1,100.0,0
2020,양천구,신정동,37.52874407081607,126.86276517689504,6.0,동원로데오아파트,84.2,1,634000000,763200000.0,202008,1,120.0,0
2020,양천구,신정동,37.5151104149728,126.866174467076,2.0,목동신시가지13단지아파트,124.55,1,1558000000,1650000000.0,202008,1,106.0,0
2019,은평구,녹번동,37.60380485377703,126.9230829305137,4.0,해주드림빌아파트,78.8,1,471000000,475240000.0,202008,1,101.0,1
2019,동작구,동작동,37.49402865537933,126.97845588096428,14.0,동작금강KCC아파트,84.95,1,888000000,938000000.0,202008,1,106.0,0
2019,은평구,진관동,37.64250283562156,126.93133586109916,6.0,상림마을은평뉴타운14단지아이파크아파트,167.62,0,1230000000,1007010000.0,202008,1,82.0,1
2019,은평구,응암동,37.596986417932506,126.923484011743,2.0,신동아아파트,26.36,1,142000000,131990000.0,202008,1,93.0,1
2019,강동구,성내동,37.52884987964355,127.1329540611932,8.0,동아1차아파트,93.55,1,601000000,733550000.0,202008,1,122.0,0
2019,강동구,길동,37.54184573433012,127.14312014407837,2.0,효성노바아파트,84.98,1,428000000,428006000.0,202008,1,100.0,0
2019,강동구,암사동,37.55060005882447,127.12378889944765,5.0,한강리치팰리스아파트,84.86,1,605000000,726090000.0,202008,1,120.0,1
2019,송파구,거여동,37.49688973635329,127.14499293469729,11.0,현대3차아파트,60.67,0,514000000,517000000.0,202008,1,101.0,1
2020,송파구,송파동,37.5078660575619,127.109622467636,2.0,에스탑아파트,88.74,1,643000000,643006000.0,202008,1,100.0,0
2020,강동구,둔촌동,37.533295592100245,127.1405830492809,7.0,세양청마루아파트,102.45,1,670000000,720010000.0,202008,1,107.0,0
2019,광진구,중곡동,37.5667846,127.0784279,4.0,중곡아파트,55.87,1,326000000,385000000.0,202007,1,118.0,0
2019,광진구,자양동,37.53780427161658,127.07263111759444,17.0,더샵스타시티아파트,127.95,1,1340000000,1551000000.0,202007,1,116.0,0
2019,송파구,가락동,37.49569686079808,127.13267814649176,4.0,극동아파트,149.74,1,1325000000,1450000000.0,202007,1,109.0,0
2019,서초구,방배동,37.49316019592449,126.99652846525268,5.0,다움샤인힐7차아파트,199.06,1,1820000000,1499999990.0,202007,1,82.0,0
2019,서대문구,연희동,37.56526929587693,126.930191172111,3.0,브라운스톤연희오피스텔,12.84,1,149000000,76300000.0,202007,1,51.0,1
2019,마포구,도화동,37.53942497854966,126.95386230877646,14.0,도화현대1차아파트,147.37,1,1200000000,1270000000.0,202007,1,106.0,0
2019,서초구,반포동,37.50018589742766,127.00971216075077,7.0,대성유니드아파트,123.974,1,1410000000,1500000000.0,202007,1,106.0,1
2019,송파구,장지동,37.47689490566791,127.1291809029229,11.0,송파파인타운13단지아파트,84.76,0,1020000000,1323700000.0,202007,1,130.0,0
2019,성동구,금호동2가,37.55540086629908,127.01899726814244,12.0,신금호파크자이아파트,18.88,1,286000000,260000000.0,202007,1,91.0,1
2019,송파구,가락동,37.4948650681996,127.11841932076484,8.0,이연파레스아파트,96.88,1,583000000,626116000.0,202007,1,107.0,1
2019,성동구,금호동4가,37.54667682397977,127.02664354487428,14.0,힐스테이트서울숲리버아파트,84.88,1,1470000000,1521100000.0,202007,1,103.0,0
2019,동작구,상도동,37.49683626864336,126.94925543680915,6.0,힐스테이트상도프레스티지아파트,120.936,1,1290000000,1350990000.0,202007,1,105.0,1
2019,양천구,목동,37.54187744479869,126.87277549533542,12.0,건영아파트,84.27,1,451000000,608861600.0,202007,1,135.0,0
2019,강서구,화곡동,37.53009333471815,126.8435727557954,12.0,유림노르웨이숲아파트,76.23,1,391000000,491250000.0,202007,1,126.0,1
2019,강서구,화곡동,37.55430214722991,126.85185951468262,9.0,경동엠파이어스테이트오피스텔,14.315,1,105000000,92085000.0,202007,1,88.0,0
2019,서초구,방배동,37.4799446,126.9920365,8.0,신구빌라트,184.08,1,1340000000,1253000000.0,202007,1,94.0,0
2019,관악구,신림동,37.460826206133056,126.92783674932998,6.0,국제산장아파트,59.94,1,333000000,334700000.0,202007,1,101.0,1
2019,구로구,천왕동,37.4829372,126.8444837,16.0,천왕연지타운2단지,84.94,0,622000000,665100000.0,202007,1,107.0,0
2019,영등포구,영등포동1가,37.5177494284636,126.91347953514,10.0,메트로가든오피스텔,12.05,1,146000000,121000000.0,202007,1,83.0,1
2019,동작구,상도동,37.50716742257615,126.94977549248304,18.0,건영아파트,84.94,1,727000000,842660000.0,202007,1,116.0,0
2019,송파구,가락동,37.50035360755063,127.1232049133,5.0,쌍용노블레스아파트,73.17,1,524000000,440200000.0,202007,1,84.0,0
2019,중랑구,묵동,37.61586212598735,127.08447745598107,9.0,신내4단지아파트,59.76,1,419000000,463555800.0,202007,1,111.0,0
2019,도봉구,창동,37.64527579536955,127.03986681685936,6.0,새울아파트(608-167번지),84.78,1,296000000,251100000.0,202007,1,85.0,0
2019,성북구,돈암동,37.59480874606793,127.0103177857626,10.0,한신한진아파트,132.96,1,790000000,828860000.0,202007,1,105.0,0
2020,노원구,하계동,37.63544431077244,127.06423915535755,1.0,극동.건영.벽산아파트,7.96,1,50000000,54259800.0,202007,1,109.0,1
2020,노원구,월계동,37.63299199256823,127.0442921915788,2.0,초안1단지아파트,39.6,1,188000000,204999000.0,202007,1,109.0,0
2019,금천구,가산동,37.47872555659634,126.89119908060152,17.0,가산양우내안애애플오피스텔,12.04,1,126000000,92010000.0,202007,1,73.0,1
2020,양천구,신정동,37.52249725736083,126.85879919795394,3.0,은행아파트,73.07,1,357000000,374000000.0,202007,1,105.0,0
2018,은평구,진관동,37.64916586252664,126.93177165727477,11.0,상림마을은평뉴타운7단지푸르지오아파트,84.95,0,660000000,688700000.0,202007,1,104.0,1
2019,서초구,서초동,37.4981997286681,127.013313721465,24.0,아크로비스타오피스텔,149.17,1,1825000000,1872450000.0,202007,1,103.0,0
2019,서대문구,홍은동,37.60260875940582,126.95086536318678,12.0,극동아파트,84.92,1,388000000,471200000.0,202007,1,121.0,0
2019,강서구,화곡동,37.55518657785274,126.84804044324358,15.0,우장산롯데캐슬아파트,177.86,1,1068000000,1072230000.0,202007,1,100.0,0
2019,강서구,염창동,37.55272507043058,126.86911753741504,14.0,관음삼성아파트,59.96,1,621000000,711100000.0,202007,1,115.0,0
2019,은평구,진관동,37.633427563063606,126.92740166839124,16.0,은평뉴타운마고정3단지아파트,167.14,0,983000000,918500000.0,202007,1,93.0,1
2019,은평구,진관동,37.6460406796935,126.9263254069071,6.0,상림마을은평뉴타운3단지아이파크아파트,134.91,0,706000000,752270000.0,202007,1,107.0,1
2019,마포구,신공덕동,37.54547723784517,126.9568957471628,8.0,신공덕삼성래미안3차아파트,84.69,1,1000000000,1158999990.0,202007,1,116.0,0
2019,관악구,신림동,37.45903694158076,126.91968237692367,2.0,관악산휴먼시아2단지아파트,114.7,1,611000000,702510000.0,202007,1,115.0,0
2019,구로구,고척동,37.50445249441749,126.86230298225573,3.0,센츄리아파트,84.56,1,439000000,532999999.0,202007,1,121.0,0
2019,서대문구,연희동,37.56526929587693,126.930191172111,2.0,브라운스톤연희오피스텔,16.62,1,188000000,158500000.0,202007,1,84.0,0
2019,성북구,돈암동,37.60073345234299,127.01250643782338,2.0,돈암일신건영휴먼빌아파트,143.51,1,756000000,838000000.0,202007,1,111.0,0
2019,노원구,공릉동,37.62337032005767,127.07183526294396,5.0,서진프라자아파트,93.03,1,310000000,336000000.0,202007,1,108.0,0
2019,노원구,상계동,37.6509522,127.0663947,5.0,상계주공4단지아파트,73.94,1,570000000,715200000.0,202007,1,125.0,0
2019,도봉구,방학동,37.6606676527166,127.029398553672,8.0,신동아1단지아파트,53.16,1,269000000,271812000.0,202007,1,101.0,0
2018,광진구,구의동,37.53605686188816,127.09133439197456,7.0,파르네빌아파트,157.21,1,802000000,843999900.0,202006,1,105.0,1
2019,광진구,중곡동,37.5692579198136,127.08751386304,4.0,선영아트빌,47.25,1,177000000,144844400.0,202006,1,82.0,1
2019,중랑구,면목동,37.58922128942006,127.08497722710008,9.0,면목아남리치카운티아파트,84.741,1,570000000,611670007.0,202006,1,107.0,0
2019,동대문구,장안동,37.56541647521389,127.06282863541648,7.0,장안신일해피트리1차아파트,84.71,1,499000000,559018000.0,202006,1,112.0,0
2019,동대문구,청량리동,37.5839418,127.0468278,6.0,미주아파트,124.76,1,1060000000,1191100000.0,202006,1,112.0,0
2019,성동구,응봉동,37.550253109685286,127.02949998343615,4.0,신동아아파트,59.97,1,557000000,703861600.0,202006,1,126.0,0
2019,성북구,돈암동,37.59799091960447,127.01169066686737,10.0,돈암해피트리아파트,143.13,1,789000000,828920000.0,202006,1,105.0,0
2019,동작구,상도동,37.495407955595,126.95087235480804,10.0,힐스테이트상도센트럴파크아파트,118.2086,1,1350000000,1383900000.0,202006,1,103.0,0
2019,동작구,사당동,37.48949025320988,126.97385282042934,6.0,이수역리가아파트,84.9827,1,1080000000,1199900000.0,202006,1,111.0,0
2019,성동구,마장동,37.565294802882086,127.04518475011572,5.0,세림아파트,72.84,1,701000000,551100000.0,202006,1,79.0,1
2019,금천구,독산동,37.467789547047786,126.89070737746016,5.0,진도아파트,59.94,1,290000000,372350000.0,202006,1,128.0,0
2019,서초구,반포동,37.49910148189759,127.00088661200806,2.0,한신서래아파트,137.47,1,1900000000,1961000000.0,202006,1,103.0,0
2019,강서구,화곡동,37.52885047447924,126.84193379067624,9.0,한양아이클래스오피스텔,13.79,1,90000000,77270000.0,202006,1,86.0,0
2018,은평구,갈현동,37.62299779653625,126.9104306585964,2.0,라이프씨티아파트,79.11,1,290000000,325677000.0,202006,1,112.0,1
2019,서초구,양재동,37.4633434770365,127.034616780883,5.0,풀하우스,47.29,1,433000000,405000000.0,202006,1,94.0,1
2019,용산구,이태원동,37.54070927879944,126.98882519947776,2.0,남산대림아파트,84.75,1,1250000000,1308999990.0,202006,1,105.0,0
2019,강서구,화곡동,37.544622377545736,126.83144140674756,2.0,화곡푸르지오아파트,104.75,1,785000000,810010000.0,202006,1,103.0,0
2019,용산구,이촌동,37.52317892558407,126.95844933588144,8.0,현대한강아파트,84.88,1,1281000000,1325843200.0,202006,1,104.0,0
2019,서초구,반포동,37.5032064667979,126.999398337486,26.0,래미안퍼스티지아파트,59.96,1,1820000000,2017000000.0,202006,1,111.0,1
2019,구로구,천왕동,37.48044947612399,126.83798938302586,14.0,천왕이펜하우스4단지아파트,84.97,1,592000000,605108000.0,202006,1,102.0,0
2019,구로구,개봉동,37.5004094376531,126.84813342649244,21.0,개봉푸르지오아파트,84.83,1,646000000,705432000.0,202006,1,109.0,0
2019,은평구,수색동,37.5868453324905,126.90002144817922,1.0,대림한숲타운아파트,59.895,1,457000000,512990000.0,202006,1,112.0,0
2019,중구,중림동,37.559554148223,126.967232251279,5.0,성요셉아파트,41.32,1,240000000,237777777.0,202006,1,99.0,0
2019,송파구,거여동,37.49826091001177,127.14364645901854,6.0,팰리스힐아파트,83.62,1,420000000,423200000.0,202006,1,101.0,0
2019,중구,신당동,37.5503667,127.0054486,5.0,우석아파트,59.99,1,260000000,215200000.0,202006,1,83.0,0
2019,서대문구,홍은동,37.59749199114725,126.94466334057692,2.0,홍은유원아파트,54.54,1,275000000,275190000.0,202006,1,100.0,0
2019,구로구,구로동,37.488625,126.8879149,1.0,아파트,58.25,1,165000000,126650000.0,202006,1,77.0,0
2019,영등포구,대림동,37.4963835,126.9008954,13.0,우성아파트,31.19,1,240000000,271000000.0,202006,1,113.0,1
2019,강서구,화곡동,37.52885047447924,126.84193379067624,9.0,한양아이클래스오피스텔,13.79,1,91000000,83710000.0,202006,1,92.0,0
2019,영등포구,당산동3가,37.52481707267833,126.90001378181697,21.0,당산동부센트레빌아파트,114.96,1,1042000000,1075300000.0,202006,1,103.0,1
2019,영등포구,문래동4가,37.51407582703968,126.888505515362,3.0,리버뷰신안인스빌1단지아파트,84.995,1,680000000,725660000.0,202006,1,107.0,0
2019,양천구,신월동,37.5204870579851,126.839690157891,7.0,정은스카이빌1차아파트,79.96,1,387000000,390870000.0,202006,1,101.0,1
2019,강동구,천호동,37.54776015515427,127.14215373468606,5.0,성인아파트,78.8,1,333000000,388860000.0,202006,1,117.0,0
2019,성북구,안암동1가,37.58930715224304,127.0237499935912,6.0,안암래미안아파트,84.8681,1,674000000,736090000.0,202006,1,109.0,0
2019,성북구,석관동,37.608365521736864,127.0545202288941,3.0,래미안석관아파트,84.84,1,670000000,720000100.0,202006,1,107.0,0
2019,강동구,천호동,37.547424569344855,127.13000411681922,5.0,중앙하이츠아파트,114.68,1,609000000,617000000.0,202006,1,101.0,0
2019,강동구,천호동,37.54417172079365,127.14120093475644,5.0,우정아파트,84.97,1,450000000,472100000.0,202006,1,105.0,0
2019,강동구,천호동,37.5365689827386,127.133547065604,36.0,강동역신동아파밀리에아파트,94.61,1,894000000,986131000.0,202006,1,110.0,0
2019,성북구,돈암동,37.59480874606793,127.0103177857626,15.0,한신한진아파트,84.87,1,601000000,610999999.0,202006,1,102.0,1
2019,성북구,정릉동,37.60034085229872,127.01008300772418,9.0,정릉우방아파트,59.94,1,302000000,333100000.0,202006,1,110.0,0
2019,동대문구,장안동,37.5699297204337,127.06900043545286,8.0,제이드파크오피스텔,21.94,1,123000000,111883300.0,202006,1,91.0,1
2019,강북구,번동,37.62395906363404,127.0380973687126,11.0,번동동문아파트,134.27,1,639000000,628000000.0,202006,1,98.0,0
2019,성북구,정릉동,37.6170995,127.0093388,2.0,정릉풍림아이원아파트,59.88,1,358000000,386110000.0,202006,1,108.0,0
2019,노원구,월계동,37.6331873477416,127.05135261146722,3.0,월계대우아파트,134.64,1,543000000,515819000.0,202006,1,95.0,0
2019,노원구,상계동,37.66695847254833,127.07968881291583,22.0,동아불암아파트,59.4,1,344000000,356000000.0,202006,1,103.0,0
2019,도봉구,창동,37.657188424559,127.0403582277295,6.0,새로움아파트,68.4,1,316000000,340000000.0,202006,1,108.0,0
2018,구로구,구로동,37.4866188,126.8859543,3.0,아파트,38.25,1,115000000,105690000.0,202006,1,92.0,1
2019,마포구,도화동,37.53777723687573,126.95207108126252,9.0,도화현대홈타운2차아파트,113.25,1,961000000,963989000.0,202006,1,100.0,0
2019,동작구,신대방동,37.49226761995813,126.9116092277599,12.0,신대방우성아파트,157.07,1,1080000000,1200111000.0,202006,1,111.0,1
2019,강남구,일원동,37.4819631393229,127.078998975513,1.0,한솔아파트,63.76,1,1256000000,1334990000.0,202006,1,106.0,0
2019,마포구,공덕동,37.55073725480446,126.95218047645083,6.0,공덕래미안5차아파트,84.87100000000002,1,1200000000,1391000000.0,202006,1,116.0,0
2019,서대문구,북아현동,37.56438506026724,126.95317911723444,6.0,북아현아파트,100.1,1,560000000,622000000.0,202006,1,111.0,0
2019,서대문구,충정로3가,37.56260900686094,126.96277145644213,4.0,충림예하임아파트,84.6,1,610000000,661710000.0,202006,1,108.0,1
2019,서대문구,연희동,37.56526929587693,126.930191172111,3.0,브라운스톤연희오피스텔,16.0,1,185000000,160000000.0,202006,1,86.0,1
2018,강북구,미아동,37.6184432414034,127.013039501497,17.0,SK북한산시티아파트,114.85,1,611000000,614190000.0,202006,1,101.0,0
2018,성북구,길음동,37.61178635414699,127.01614615726216,18.0,길음뉴타운2단지푸르지오아파트,84.97,1,724000000,682000000.0,202006,1,94.0,0
2019,강동구,암사동,37.55352610318784,127.13949839212972,10.0,프라이어팰리스아파트,84.949,1,875000000,951880000.0,202006,1,109.0,0
2019,도봉구,쌍문동,37.65602147660313,127.0321346738133,1.0,한양5차아파트,65.37,1,277000000,290860000.0,202006,1,105.0,1
2019,도봉구,방학동,37.65880898561742,127.0252590065892,12.0,벽산2차아파트,84.98,1,397000000,361600000.0,202006,1,91.0,1
2019,중랑구,면목동,37.58055114629927,127.0835590232765,15.0,면목두산2단지아파트,134.2,1,685000000,691110000.0,202006,1,101.0,0
2019,송파구,거여동,37.49287963162806,127.1410455172596,3.0,현대1차아파트,74.83,1,724000000,728899000.0,202006,1,101.0,0
2019,성북구,종암동,37.5968555901075,127.03172420988044,12.0,종암아이파크2차아파트,42.365,1,350000000,376800000.0,202006,1,108.0,1
2019,노원구,월계동,37.63169155546426,127.05170957501532,9.0,청백4단지아파트,39.84,1,230000000,217770000.0,202006,1,95.0,0
2019,성북구,돈암동,37.599432413814334,127.01257982601214,6.0,돈암코오롱하늘채아파트,84.8778,1,796000000,817120000.0,202006,1,103.0,1
2019,중랑구,묵동,37.61665863871433,127.08811986016424,4.0,신내5단지두산대림아파트,126.28,1,680000000,750030000.0,202006,1,110.0,0
2019,노원구,상계동,37.66830945930398,127.05535065988808,1.0,상계주공15단지아파트,59.39,1,352000000,360950000.0,202006,1,103.0,1
2019,성북구,정릉동,37.60377540136136,127.01039150184096,5.0,중앙하이츠빌2단지아파트,84.95,1,530000000,545511000.0,202006,1,103.0,0
2019,광진구,자양동,37.53218418637383,127.06903239883214,3.0,이튼타워리버5차아파트,159.97,1,1340000000,1356000000.0,202005,1,101.0,0
2019,중랑구,면목동,37.58087445315167,127.08989471709302,12.0,아람플러스리빙아파트,84.975,1,460000000,471110000.0,202005,1,102.0,1
2019,노원구,하계동,37.63544431077244,127.06423915535755,11.0,극동.건영.벽산아파트,26.57,1,194000000,195200000.0,202005,1,101.0,0
2019,노원구,공릉동,37.62754480203334,127.06998597760035,4.0,공릉신도1차아파트,117.168,1,620000000,620010000.0,202005,1,100.0,0
2019,서초구,서초동,37.48115567721287,127.01018455421102,4.0,엘리제아파트,97.36,1,786000000,792310000.0,202005,1,101.0,0
2019,서초구,서초동,37.49601733894278,127.02527644953784,11.0,서초동아타워아파트,88.63,1,577000000,584000000.0,202005,1,101.0,0
2018,금천구,시흥동,37.46327871273526,126.90944597880508,8.0,삼익아파트,114.48,1,432000000,479799000.0,202005,1,111.0,1
2019,강서구,화곡동,37.55518657785274,126.84804044324358,3.0,우장산롯데캐슬아파트,85.0,1,780000000,722690000.0,202005,1,93.0,1
2019,강서구,마곡동,37.56390033523861,126.82000015033874,7.0,마곡엠밸리8단지아파트,84.88,0,1040000000,1016700000.0,202005,1,98.0,0
2019,관악구,봉천동,37.4845274045932,126.94289247795972,3.0,"봉천두산1,2단지아파트",84.87,1,695000000,781880000.0,202005,1,113.0,0
2018,구로구,신도림동,37.508082186005744,126.88833346754832,11.0,디큐브시티아파트,105.45,1,1110000000,1137630000.0,202005,1,102.0,0
2018,금천구,시흥동,37.46327871273526,126.90944597880508,4.0,삼익아파트,114.48,1,425000000,470112000.0,202005,1,111.0,0
2018,서초구,반포동,37.5043689,126.986383,2.0,반포아파트,140.13,1,4190000000,2725000000.0,202005,1,65.0,0
2019,강서구,방화동,37.57725015596032,126.81751597345443,13.0,한숲마을대림아파트,84.83,1,540000000,497000000.0,202005,1,92.0,0
2019,영등포구,신길동,37.50490147161546,126.9079967200798,14.0,래미안프레비뉴아파트,84.98,1,1028000000,1134100000.0,202005,1,110.0,0
2019,영등포구,영등포동,37.51185180912726,126.90237014189154,21.0,영등포푸르지오아파트,79.777,1,765000000,899900000.0,202005,1,118.0,0
2019,동작구,대방동,37.50741732947618,126.9249146399778,14.0,대방대림아파트,66.05,1,760000000,715000000.0,202005,1,94.0,1
2019,서초구,방배동,37.49562166991061,126.99449851112938,6.0,프레스턴아파트,243.83,1,2540000000,2222222000.0,202005,1,87.0,0
2019,강서구,방화동,37.57101151254286,126.8221315122572,8.0,마곡일성트루엘아파트,29.99,1,267500000,289999000.0,202005,1,108.0,0
2019,구로구,고척동,37.50445249441749,126.86230298225573,13.0,센츄리아파트,84.56,1,442000000,492550000.0,202005,1,111.0,0
2019,양천구,목동,37.5367299030849,126.882202430707,23.0,부영그린타운3차아파트,157.29,1,1260000000,1301550000.0,202005,1,103.0,0
2019,은평구,응암동,37.60051991121685,126.92600794505232,5.0,레반트아파트,67.14,1,300000000,242000000.0,202005,1,81.0,1
2019,서대문구,홍은동,37.59485257526492,126.94192958595993,4.0,풍림1차아파트,56.61,1,310000000,316439999.0,202005,1,102.0,1
2019,용산구,이촌동,37.5207395501517,126.969009394336,5.0,월드메르디앙아파트,128.66,1,1640000000,1313111000.0,202005,1,80.0,1
2019,은평구,녹번동,37.60380485377703,126.9230829305137,14.0,해주드림빌아파트,106.54,1,542000000,542000000.0,202005,1,100.0,1
2019,서대문구,홍은동,37.60260875940582,126.95086536318678,11.0,극동아파트,84.92,1,370000000,381900000.0,202005,1,103.0,0
2019,동작구,본동,37.50989217282603,126.95003946254064,17.0,본동삼성래미안아파트,114.986,1,923000000,1035799000.0,202005,1,112.0,0
2018,노원구,상계동,37.6810968943773,127.05375719325038,11.0,은빛1단지아파트,39.7,1,227000000,245340000.0,202005,1,108.0,0
2019,중랑구,면목동,37.58750505698917,127.0754646406228,5.0,면목한신아파트,44.5,1,298000000,323990000.0,202005,1,109.0,1
2019,도봉구,도봉동,37.68252225396975,127.04961809082282,13.0,극동아파트,84.18,1,334000000,331010000.0,202005,1,99.0,1
2019,성북구,돈암동,37.597677470823655,127.01067601171005,7.0,돈암더샵아파트,84.81700000000002,0,608000000,617646000.0,202005,1,102.0,0
2019,동대문구,휘경동,37.591728514798696,127.06392415215949,11.0,휘경롯데낙천대아파트,112.03,1,690000000,661990000.0,202005,1,96.0,0
2019,강북구,미아동,37.63345491448717,127.0270132388054,3.0,미아요진아파트,59.42,1,292000000,289000900.0,202005,1,99.0,0
2019,성북구,정릉동,37.6061677340023,127.016507343215,13.0,정릉태영아파트,114.76,1,545000000,551300000.0,202005,1,101.0,0
2019,성동구,마장동,37.56945837659617,127.04256567948956,18.0,마장현대아파트,134.79,1,776000000,880000000.0,202005,1,113.0,0
2019,성북구,석관동,37.61109107098002,127.06669061595105,1.0,중앙하이츠아파트,84.85,1,440000000,478899900.0,202005,1,109.0,0
2019,도봉구,방학동,37.6669434576878,127.04733633569172,7.0,방학삼성래미안1단지아파트,118.381,1,723000000,760950000.0,202005,1,105.0,0
2019,동대문구,장안동,37.57596520721928,127.07534884553698,10.0,장안힐스테이트아파트,59.928,1,588000000,648820000.0,202005,1,110.0,0
2019,도봉구,창동,37.65045531130438,127.05204213720975,15.0,주공19단지아파트,68.86,1,626000000,701000050.0,202005,1,112.0,1
2019,노원구,월계동,37.61850427769218,127.06022278935126,4.0,삼창아파트,16.17,1,90000000,170010000.0,202005,1,189.0,1
2019,양천구,신월동,37.5271006664646,126.834648491006,1.0,해주아파트,59.59,1,218000000,208220000.0,202005,1,96.0,0
2019,구로구,고척동,37.50153862080172,126.86383733540784,5.0,청구아파트,59.94,1,390000000,395190000.0,202005,1,101.0,1
2019,동작구,사당동,37.491549392251954,126.97542160970204,2.0,극동아파트,59.89,1,660000000,743000000.0,202004,1,113.0,1
2019,광진구,광장동,37.54414401948922,127.10152831767476,7.0,광장현대파크빌10차아파트,84.81,1,1070000000,1125000000.0,202004,1,105.0,0
2019,송파구,잠실동,37.51110428250743,127.0939178657084,19.0,갤러리아팰리스오피스텔,151.189,1,1590000000,1610000000.0,202004,1,101.0,0
2019,송파구,잠실동,37.51275285867244,127.0884194493474,14.0,리센츠아파트,84.99,1,1720000000,1752112000.0,202004,1,102.0,1
2019,송파구,가락동,37.49188082071231,127.12551134130196,11.0,가락우성2차아파트,42.48,1,360000000,426409900.0,202004,1,118.0,0
2019,강북구,번동,37.6249505081745,127.04708766769456,13.0,번동주공1단지아파트,49.94,1,363000000,427111110.0,202004,1,118.0,1
2019,노원구,상계동,37.67219429527272,127.0518011432971,14.0,상계중앙하이츠5차아파트,59.99,1,290000000,290399999.0,202004,1,100.0,1
2019,중랑구,신내동,37.6168103510126,127.10629361016376,8.0,신내우디안1단지아파트,84.79,0,600000000,643000000.0,202004,1,107.0,1
2019,성북구,하월곡동,37.6073772806315,127.038075319501,13.0,월곡두산위브아파트,59.855,1,508000000,570600000.0,202004,1,112.0,0
2019,노원구,상계동,37.6616865566083,127.073164181156,4.0,벽산아파트,46.8,1,264000000,266336000.0,202004,1,101.0,0
2018,용산구,한남동,37.537020736325246,127.0094295463928,4.0,한남더힐아파트,177.764,1,3640000000,3881100000.0,202004,1,107.0,0
2018,관악구,봉천동,37.4920894,126.9605879,11.0,현대아파트,84.74,1,575000000,642920000.0,202004,1,112.0,1
2019,서대문구,남가좌동,37.5748720882277,126.9202135771335,13.0,남가좌현대아파트,59.4,1,475000000,599990000.0,202004,1,126.0,1
2019,관악구,봉천동,37.48538833941678,126.95926400852284,22.0,관악우성아파트,114.78,1,780000000,748550000.0,202004,1,96.0,1
2019,서초구,신원동,37.4559523,127.0581198,6.0,힐스테이트서초젠트리스,114.9,0,1720000000,1553390000.0,202004,1,90.0,0
2019,중구,황학동,37.57114893748801,127.02158895337772,8.0,롯데캐슬베네치아아파트,84.97,1,739000000,800450000.0,202004,1,108.0,0
2019,서초구,반포동,37.501353674137135,127.00878043670616,8.0,반포미도1차아파트,42.48,1,811000000,811000000.0,202004,1,100.0,0
2018,강동구,둔촌동,37.52952723307251,127.1423996981354,10.0,둔촌하이츠아파트,84.54,1,758000000,811599000.0,202004,1,107.0,1
2019,강북구,미아동,37.61394080382375,127.0207269361348,3.0,래미안트리베라1차아파트,84.97,1,681000000,685900000.0,202004,1,101.0,1
2019,노원구,공릉동,37.62752083668882,127.07382849845882,2.0,서일이츠뷰아파트,84.98299999999998,1,392000000,463999999.0,202004,1,118.0,0
2018,노원구,중계동,37.64733259431431,127.08329837571794,2.0,한화꿈에그린아파트,84.902,1,566000000,615600000.0,202004,1,109.0,0
2019,노원구,월계동,37.63169155546426,127.05170957501532,8.0,청백4단지아파트,59.4,1,306000000,316333300.0,202004,1,103.0,0
2019,동대문구,휘경동,37.58288733293944,127.07133556183088,3.0,주공1단지아파트,84.86,1,580000000,625000000.0,202004,1,108.0,1
2019,양천구,신정동,37.515766646451446,126.87637159349308,7.0,목동삼성아파트,114.93,1,910000000,1111110000.0,202004,1,122.0,1
2019,영등포구,문래동3가,37.5202257683701,126.892056254232,9.0,예지팰리스77차아파트,62.65,1,484000000,525252525.0,202004,1,109.0,1
2019,양천구,목동,37.53466020821636,126.88484415480872,2.0,목동신시가지6단지아파트,65.1,1,1100000000,1205200000.0,202004,1,110.0,0
2018,동작구,대방동,37.49853226039266,126.9231186626358,5.0,보라매코오롱하늘채아파트,84.7,1,751000000,721999990.0,202004,1,96.0,0
2019,관악구,봉천동,37.490294760356726,126.93423672148788,5.0,성원홈아파트,71.35,1,250000000,213110000.0,202004,1,85.0,0
2018,구로구,신도림동,37.5110412809749,126.88295312076426,14.0,신도림동아1차아파트,169.199,1,978000000,1046600000.0,202004,1,107.0,0
2019,강서구,가양동,37.569791486743874,126.8492649763875,1.0,가양중앙하이츠아파트,119.85,1,700000000,681150000.0,202004,1,97.0,0
2019,송파구,가락동,37.49441856684362,127.1215758412106,23.0,송파롯데캐슬파인힐아파트,180.516,1,1050000000,1102999990.0,202004,1,105.0,0
2018,용산구,한남동,37.53846732258501,127.0137180260168,3.0,힐탑트레져아파트,208.88,1,2820000000,2350000000.0,202003,1,83.0,0
2019,은평구,역촌동,37.6037659946461,126.916291578525,6.0,동명홈타운,46.73,1,222000000,194550000.0,202003,1,88.0,1
2019,중구,회현동1가,37.5562273156464,126.98252132434324,4.0,삼풍아파트,68.23,1,415000000,343230000.0,202002,1,83.0,0
2019,영등포구,영등포동3가,37.5178725,126.907119,8.0,포레스트힐시티,13.53,1,125000000,113300000.0,202002,1,91.0,0
2019,영등포구,영등포동3가,37.5178725,126.907119,11.0,포레스트힐시티,13.53,1,125000000,112300000.0,202002,1,90.0,1
2019,금천구,독산동,37.46745827036097,126.89500792154976,4.0,독산현대아파트,58.72,1,355000000,425300000.0,202002,1,120.0,0
2019,강서구,가양동,37.56624478062903,126.84895972005737,13.0,강서한강자이아파트,84.99,1,901000000,1006000000.0,202002,1,112.0,0
2019,동대문구,이문동,37.6000357871039,127.056606840929,15.0,이문삼성래미안1차아파트,84.954,1,608000000,628682990.0,202002,1,103.0,0
2019,노원구,상계동,37.67139260007626,127.05139706288668,3.0,대창센시티아파트,84.8577,1,413000000,421190000.0,202002,1,102.0,0
2019,성동구,행당동,37.55437159182884,127.03283790932718,10.0,신동아아파트,84.96,1,725000000,739900000.0,202002,1,102.0,1
2019,강북구,미아동,37.6155486176273,127.017981853747,1.0,삼각산아이원아파트,84.705,1,480000000,518890000.0,202002,1,108.0,0
2019,노원구,중계동,37.64784339424072,127.0846451091211,7.0,중계현대2차아파트,84.87,1,454000000,458980000.0,202002,1,101.0,0
2019,동대문구,장안동,37.5689333,127.0703215,16.0,서희스타힐스,80.53,1,452000000,455015000.0,202002,1,101.0,0
2019,서초구,서초동,37.483572351414445,127.01663749353686,7.0,현대슈퍼빌오피스텔,205.67,1,1920000000,1858300000.0,202002,1,97.0,0
2019,강서구,마곡동,37.56563606787209,126.82386023376502,14.0,마곡엠밸리7단지아파트,114.91,0,1320000000,1480999000.0,202002,1,112.19689393939392,0
2018,양천구,신정동,37.528827085241,126.859800939122,7.0,청우아파트,69.12,1,378000000,423850000.0,202002,1,112.12962962962962,0
2018,은평구,신사동,37.5971234346741,126.90724237191,3.0,예성그린아파트,59.36,1,289000000,232067500.0,202002,1,80.0,1
2019,서대문구,북아현동,37.56039783307326,126.9523848193182,8.0,신촌푸르지오아파트,54.55,1,682500000,663000000.0,202002,1,97.0,1
2018,중랑구,신내동,37.6091161456984,127.0976798411704,19.0,"동성1,2차아파트",59.4,1,370000000,393897000.0,202002,1,106.45864864864863,0
2018,강동구,천호동,37.5497679445997,127.13881692627864,4.0,천호우성아파트,84.93,1,644000000,748000000.0,202002,1,116.14906832298138,0
2019,송파구,장지동,37.47929357128287,127.1400928993921,21.0,송파더센트레아파트,59.96,0,919000000,1031900000.0,202002,1,112.28509249183897,0
2019,강북구,수유동,37.6320836,127.0225611,8.0,수유역 하이 시티,12.19,1,91800000,80690000.0,202002,1,88.0,0
2019,성북구,안암동3가,37.58236566101433,127.02492068628948,1.0,대광아파트,43.17,1,161000000,183900000.0,202002,1,114.22360248447204,0
2019,도봉구,창동,37.65647256541975,127.04173589067392,8.0,창동금호어울림아파트,152.09,1,642000000,762510000.0,202002,1,118.77102803738318,0
2019,구로구,구로동,37.49532355240305,126.88603088285336,4.0,보광아파트,66.42,1,490000000,554000000.0,202002,1,113.06122448979592,0
2019,구로구,구로동,37.496135840920665,126.88938145043986,10.0,성일오피스텔,70.58,1,233000000,238100000.0,202002,1,102.0,0
2019,구로구,고척동,37.50254753855083,126.86056936646122,10.0,서울가든아파트,54.61,1,333000000,375099800.0,202002,1,112.64258258258258,0
2019,금천구,시흥동,37.4482710161534,126.91877171285056,14.0,벽산5단지아파트,114.84,1,474000000,482880000.0,202002,1,101.873417721519,0
2019,서대문구,연희동,37.5678946880066,126.93472433222183,2.0,충우아파트(51-151),105.44,1,469000000,346777000.0,202002,1,74.0,0
2019,은평구,진관동,37.6355766628199,126.927808571598,14.0,은평뉴타운우물골아파트(두산위브7단지),67.22,0,480000000,427600000.0,202002,1,89.0,1
2018,강동구,천호동,37.54436727818855,127.12433645463754,7.0,천호e편한세상아파트,113.86,1,767000000,261210000.0,202002,1,34.0,1
2018,동대문구,장안동,37.56858806667942,127.07064502716668,6.0,장안애캐슬오피스텔,52.04,1,267000000,205500000.0,202002,1,77.0,0
2018,송파구,방이동,37.5143844900996,127.135158949349,11.0,올림픽선수기자촌아파트,100.31,1,1520000000,1668800000.0,202002,1,109.78947368421052,0
2019,성동구,성수동1가,37.55101907466686,127.0482927402086,16.0,성수동아그린아파트,58.32,1,640000000,731222000.0,202002,1,114.2534375,1
2019,성동구,상왕십리동,37.57046537873107,127.02467334916216,14.0,텐즈힐2단지아파트,29.98,1,462000000,476486200.0,202002,1,103.0,1
2019,도봉구,도봉동,37.68105938754384,127.04884624191708,7.0,삼환도봉아파트,73.89,1,373000000,402799900.0,202002,1,108.0,0
2019,노원구,상계동,37.66695847254833,127.07968881291583,9.0,동아불암아파트,84.9,1,484000000,470777799.0,202002,1,97.0,0
2019,강북구,번동,37.62395906363404,127.0380973687126,16.0,번동동문아파트,84.86,1,432000000,472320000.0,202002,1,109.0,0
2019,노원구,상계동,37.67219429527272,127.0518011432971,12.0,상계중앙하이츠5차아파트,84.87,1,387000000,387000500.0,202002,1,100.0,0
2019,송파구,문정동,37.47971076036868,127.12480132351254,17.0,송파파크하비오푸르지오오피스텔,84.934,1,1090000000,1285330000.0,202002,1,117.92018348623854,0
2019,강북구,번동,37.62406820346464,127.04539701381348,9.0,성금수림채아파트,112.29,1,395000000,398888000.0,202002,1,101.0,0
2019,노원구,상계동,37.66333802273279,127.06049926572746,12.0,상계주공9단지아파트,45.9,1,293000000,315000000.0,202002,1,107.5085324232082,0
2019,강남구,역삼동,37.4972026,127.0336354,2.0,역삼동 EG SoulLeader,27.67,1,360000000,325111110.0,202002,1,90.0,0
2019,종로구,평창동,37.60968749956977,126.97592188163308,2.0,엘리시아아파트,200.19,1,1670000000,915115290.0,202002,1,54.79732275449102,0
2019,동작구,대방동,37.50959403999071,126.92615886652068,18.0,성원아파트,84.32,1,867000000,868000000.0,202002,1,100.0,0
2019,관악구,봉천동,37.48082340634545,126.96348138998914,3.0,낙성대현대홈타운아파트,114.919,1,825000000,815159000.0,202002,1,99.0,0
2019,강남구,도곡동,37.48945382790669,127.05388527939016,34.0,타워팰리스2차오피스텔,97.92,1,1530000000,1170380000.0,202001,1,76.0,1
2019,관악구,봉천동,37.48538833941678,126.95926400852284,5.0,관악우성아파트,84.96,1,697000000,685670000.0,202001,1,98.37446197991392,0
2019,마포구,도화동,37.5400830740148,126.95032143595203,6.0,마포삼성아파트,114.74,1,1270000000,1301000000.0,202001,1,102.44094488188978,1
2019,마포구,서교동,37.55093530307955,126.91378068787876,21.0,메세나폴리스아파트,142.034,1,1730000000,1501000000.0,202001,1,87.0,1
2019,은평구,신사동,37.58977235396887,126.90511267017244,1.0,신성아파트,61.32,1,252000000,259999999.0,202001,1,103.0,0
2019,동대문구,장안동,37.5700227869319,127.074496157311,15.0,장안현대홈타운1차아파트,133.72,1,840000000,842200000.0,202001,1,100.26190476190476,1
2019,도봉구,도봉동,37.6756958991837,127.044180403844,2.0,명성리치빌,49.32,1,224000000,173633000.0,202001,1,78.0,0
2019,중랑구,신내동,37.60349002755963,127.09808922984232,7.0,중앙하이츠아파트,84.97,1,448000000,439900000.0,202001,1,98.0,1
2019,동대문구,장안동,37.5613697,127.0699248,6.0,장안푸르미에,12.946,1,123000000,106599999.0,202001,1,86.66666585365853,0
2019,서대문구,북아현동,37.56473511590216,126.95210248599412,6.0,북아현3차아파트,41.12,1,345000000,301000000.0,202001,1,87.0,1
2019,마포구,성산동,37.56934389800746,126.90824464422232,1.0,성산월드타운대림아파트,84.689,1,742000000,743779900.0,202001,1,100.0,1
2019,은평구,구산동,37.61150388814018,126.90924390816195,5.0,구산브라운스톤아파트,59.97,1,390000000,397970000.0,202001,1,102.0,0
2019,양천구,신월동,37.5271006664646,126.834648491006,6.0,해주아파트,59.59,1,249000000,249000000.0,202001,1,100.0,0
2018,도봉구,쌍문동,37.6548060942959,127.03514403506304,10.0,경남아파트,46.3,1,244000000,212300000.0,202001,1,87.00819672131146,0
2018,노원구,월계동,37.63169155546426,127.05170957501532,15.0,청백4단지아파트,49.77,1,245000000,213129999.0,202001,1,86.99183632653062,1
2019,노원구,상계동,37.6860596234662,127.05344333463329,10.0,수락리버시티4단지아파트,84.88,0,480000000,480100303.0,202001,1,100.0,0
2019,성북구,정릉동,37.60034085229872,127.01008300772418,8.0,정릉우방아파트,84.92,1,348000000,381100000.0,202001,1,110.0,0
2019,성북구,돈암동,37.59480874606793,127.0103177857626,20.0,한신한진아파트,152.25,1,819000000,750500000.0,202001,1,91.63614163614164,1
2019,성북구,하월곡동,37.5964345348198,127.04139433434132,19.0,샹그레빌아파트,79.248,1,516000000,475100000.0,202001,1,92.07364341085272,0
2019,동대문구,답십리동,37.5746549056229,127.060087841828,11.0,답십리청솔우성아파트,114.76,1,703000000,704400000.0,202001,1,100.0,0
2019,관악구,신림동,37.48565972591745,126.93219990747814,9.0,신림큐브오피스텔,12.96,1,134000000,105763700.0,202001,1,79.0,0
2019,관악구,봉천동,37.48538833941678,126.95926400852284,2.0,관악우성아파트,114.78,1,699000000,632000900.0,202001,1,90.0,1
2019,서초구,반포동,37.4995062,126.9893218,3.0,반포아파트,24.17,1,630000000,720000000.0,202001,1,114.0,1
2019,강서구,화곡동,37.544622377545736,126.83144140674756,3.0,화곡푸르지오아파트,103.92,1,787000000,783770000.0,202001,1,99.58958068614992,0
2019,금천구,독산동,37.47333638769233,126.90011970655728,2.0,한아아파트,84.6,1,338000000,340350000.0,202001,1,101.0,0
2019,양천구,목동,37.54499728604307,126.8683751569276,6.0,목동금호베스트빌아파트,96.83,1,708000000,708000000.0,202001,1,100.0,0
2019,강서구,화곡동,37.5332890724821,126.840793025982,4.0,벨라하우스,29.05,1,201880000,190000000.0,202001,1,94.11531602932436,0
2019,동작구,상도동,37.502457934616935,126.94204985010734,2.0,상도더샵1차아파트,59.99,1,755000000,826770000.0,202001,1,110.0,0
2019,양천구,신정동,37.52668450197269,126.8582890096676,3.0,예지아파트,94.98,1,402000000,365499900.0,202001,1,90.92037313432836,0
2018,용산구,한강로1가,37.537089880602366,126.9720304055769,27.0,용산파크자이오피스텔,162.04,1,1590000000,1701112000.0,202001,1,107.0,1
2018,서대문구,홍은동,37.59543612299509,126.9344828727542,12.0,서강2차아파트,139.58,1,566000000,430430000.0,202001,1,76.04770318021201,0
2019,구로구,구로동,37.48627904269408,126.8759905399035,20.0,한일유앤아이아파트,84.962,1,509000000,490110000.0,202001,1,96.28880157170924,0
2019,서초구,서초동,37.5002705,127.01845,9.0,서초4차현대아파트,52.36,1,713000000,968880000.0,202001,1,136.0,0
2019,마포구,마포동,37.5363251,126.9453874,5.0,마포 비체힐1 리버뷰,16.624000000000002,1,133000000,127300000.0,202001,1,95.71428571428572,0
2019,마포구,대흥동,37.54473232045174,126.94257048117984,20.0,대흥동태영아파트,84.77,1,1030000000,1083000000.0,202001,1,105.0,0
2019,강서구,내발산동,37.5536090289372,126.84059702947758,5.0,원다벨라빌아파트,84.985,1,543000000,521288000.0,202001,1,96.00147329650092,1
2019,영등포구,신길동,37.5067105,126.9192543,7.0,삼환아파트,14.88,1,150000000,160000000.0,202001,1,107.0,1
2019,은평구,신사동,37.59350882643966,126.90861355593395,3.0,새절역현대아파트,84.17,1,370000000,411210000.0,202001,1,111.0,0
2018,동대문구,장안동,37.570931,127.0701657,10.0,청솔아파트,53.79,1,291000000,260500000.0,202001,1,90.0,1
2019,강동구,암사동,37.55403745044372,127.12710031436971,3.0,삼성광나루아파트,157.24,1,998000000,889990000.0,202001,1,89.17735470941884,1
2019,강동구,길동,37.5382490177698,127.136202234008,17.0,한빛아파트,60.1,1,342000000,420000000.0,202001,1,123.0,0
2019,송파구,마천동,37.5005249716484,127.14598611121085,4.0,아남아파트,82.13,1,498000000,535600000.0,202001,1,108.0,0
2019,노원구,상계동,37.66616680124523,127.0593182791222,12.0,상계주공12단지아파트,41.3,1,298000000,299000000.0,202001,1,100.0,0
2019,서초구,서초동,37.48792516348864,127.00736321062271,3.0,신구블레스벨리아파트,152.48,1,1240000000,1156900000.0,201912,1,93.0,1
2019,성동구,마장동,37.56892817949718,127.04369278746428,14.0,마장신성미소지움아파트,84.99,1,720000000,731800000.0,201912,1,102.0,0
2019,송파구,잠실동,37.51293085517571,127.08146118769716,13.0,잠실엘스아파트,84.8,1,1700000000,1817999999.0,201912,1,107.0,0
2019,강남구,개포동,37.4845143707298,127.0541723119617,1.0,경남아파트,182.2,1,2340000000,2375000000.0,201912,1,101.0,0
2019,서초구,서초동,37.498545433330456,127.01561511197758,5.0,삼풍아파트,165.92,1,2540000000,2616260000.0,201912,1,103.0,0
2019,양천구,목동,37.53586582700714,126.87950644416028,8.0,벽산미라지타워아파트,148.22,1,1070000000,1073500000.0,201912,1,100.0,0
2018,강남구,역삼동,37.4985135896485,127.042507283285,2.0,명인갤러리1차아파트,84.78,1,760000000,806999990.0,201912,1,106.0,0
2019,은평구,역촌동,37.6066991111504,126.916850016288,4.0,유니캐슬,27.19,1,167000000,133700000.0,201912,1,80.0,0
2019,은평구,구산동,37.60556153457049,126.9053825355327,8.0,경남아너스빌아파트,84.69,1,427000000,427890500.0,201912,1,100.0,0
2019,은평구,불광동,37.61492995473932,126.9283087734064,11.0,미성아파트,66.7,1,520000000,552899900.0,201912,1,106.0,0
2019,도봉구,방학동,37.66283753052672,127.02810737677862,8.0,대원그린아파트,46.86,1,182000000,163890000.0,201912,1,90.0,0
2019,노원구,중계동,37.6420264,127.0641156,5.0,동은유치원,59.87,1,416000000,411800000.0,201912,1,99.0,0
2019,도봉구,도봉동,37.68669283179385,127.04754842018184,3.0,도봉한신아파트,84.94,1,405000000,393200200.0,201912,1,97.0,1
2019,강북구,미아동,37.61394080382375,127.0207269361348,18.0,래미안트리베라1차아파트,114.98,1,830000000,870000000.0,201912,1,105.0,0
2019,성북구,보문동3가,37.58294388234168,127.015707444911,3.0,e편한세상보문1단지아파트,84.904,1,700000000,747330000.0,201912,1,107.0,0
2019,동작구,대방동,37.50741732947618,126.9249146399778,12.0,대방대림아파트,84.92,1,900000000,1029990000.0,201912,1,114.0,0
2019,종로구,사직동,37.573548563330725,126.96776495612136,3.0,광화문풍림스페이스본2단지아파트,163.33,1,1620000000,1437777777.0,201912,1,89.0,0
2019,서초구,우면동,37.472836656208166,127.02300766775946,15.0,대림아파트,130.89,1,1267000000,1305500000.0,201912,1,103.0,1
2019,강서구,마곡동,37.55805091657744,126.82408180904882,3.0,마곡엠밸리14단지아파트,84.88,0,1130000000,931900000.0,201912,1,82.0,0
2019,양천구,목동,37.53394405537617,126.8822475432879,9.0,목동신시가지5단지아파트,115.47,1,1790000000,2081000000.0,201912,1,116.0,0
2018,용산구,이태원동,37.53508030960208,126.9966374027152,2.0,메이아파트,159.63,1,1720000000,1290000000.0,201912,1,75.0,0
2019,서대문구,홍제동,37.58727571414443,126.94291823546072,5.0,제일아파트,40.06,0,205000000,165100000.0,201912,1,81.0,1
2019,서대문구,홍은동,37.5806094,126.929065,2.0,신원지벤스타,191.28,1,870000000,625680000.0,201912,1,72.0,1
2019,은평구,녹번동,37.60683748279,126.93654536993654,6.0,북한산푸르지오아파트,84.99,1,825000000,840000000.0,201912,1,102.0,0
2019,중구,신당동,37.5634734,127.0259478,1.0,한진해모로,84.96,1,620000000,635000000.0,201912,1,102.0,0
2018,송파구,가락동,37.495064853896295,127.12043702114713,7.0,성원상떼빌아파트,136.24,1,838000000,1034999999.0,201912,1,124.0,0
2018,강서구,화곡동,37.54725631378638,126.84075879877204,2.0,강서힐스테이트아파트,128.81,1,1150000000,1111500000.0,201912,1,97.0,0
2019,강서구,화곡동,37.53571572533554,126.84368547031292,4.0,중앙하이츠아파트,56.88,1,271000000,275110000.0,201912,1,102.0,0
2019,영등포구,당산동5가,37.53293204452245,126.90283595709072,23.0,당산삼성래미안4차아파트,161.08,1,1440000000,1580090000.0,201912,1,110.0,1
2019,관악구,신림동,37.48565972591745,126.93219990747814,9.0,신림큐브오피스텔,13.41,1,139000000,128050803.0,201912,1,92.0,0
2019,관악구,신림동,37.48565972591745,126.93219990747814,10.0,신림큐브오피스텔,13.41,1,139000000,128046800.0,201912,1,92.0,0
2019,서초구,우면동,37.472836656208166,127.02300766775946,8.0,대림아파트,130.89,1,1277000000,1283460000.0,201912,1,101.0,0
2019,구로구,온수동,37.49673142073229,126.8210277186938,2.0,온수힐스테이트아파트,84.97,1,532000000,542900000.0,201912,1,102.0,0
2019,구로구,고척동,37.5028484589891,126.856049577532,13.0,고척대우아파트,114.95,1,528000000,528500000.0,201912,1,100.0,0
2018,서대문구,홍은동,37.58216582274229,126.93361596480328,6.0,올림푸스아파트,171.72,1,630000000,595955000.0,201912,1,95.0,0
2019,서대문구,홍제동,37.58766438074983,126.94959917516834,15.0,홍제원현대아파트,84.9,1,641000000,721503000.0,201912,1,113.0,0
2019,은평구,역촌동,37.60562725531806,126.91353640215966,4.0,만민라이프아파트,84.23,1,340000000,315500000.0,201912,1,93.0,0
2019,서대문구,홍제동,37.58381411176445,126.9509637628719,8.0,인왕산어울림아파트,72.34,1,447000000,402990000.0,201912,1,90.0,1
2019,은평구,응암동,37.59921284885765,126.92223156668015,18.0,응암금호아파트,59.73,1,426000000,408999000.0,201912,1,96.0,0
2019,성동구,옥수동,37.54360591337897,127.0188788562674,2.0,옥수현대아파트,42.45,1,463000000,470000100.0,201912,1,102.0,1
2019,영등포구,대림동,37.50276662193797,126.89461469439996,5.0,현대2차아파트,84.74,1,542000000,563750000.0,201911,1,104.0,1
2018,중랑구,묵동,37.61685447994778,127.07737451401304,2.0,신도1차아파트,58.59,1,290000000,374529810.0,201911,1,129.0,1
2019,동대문구,장안동,37.5700227869319,127.074496157311,22.0,장안현대홈타운1차아파트,58.42,1,575000000,575199000.0,201911,1,100.0,0
2019,송파구,풍납동,37.53074972555152,127.11529917238448,16.0,현대리버빌1차아파트,43.2,1,494000000,532222222.0,201911,1,108.0,0
2019,노원구,중계동,37.649828902680255,127.07433103763512,4.0,청구3차아파트,84.77,1,840000000,851001000.0,201911,1,101.0,1
2019,송파구,신천동,37.52122940631966,127.10998251166994,30.0,파크리오아파트,84.79,1,1480000000,1744500000.0,201911,1,118.0,0
2019,성동구,응봉동,37.553430107559,127.0357391828018,17.0,대림강변타운아파트,84.42,1,971000000,1080020000.0,201911,1,111.0,0
2019,송파구,문정동,37.47971076036868,127.12480132351254,12.0,송파파크하비오푸르지오오피스텔,84.973,1,1170000000,1205590000.0,201911,1,103.0,0
2019,광진구,군자동,37.5525710293672,127.076461503626,1.0,운암주택,70.93,1,245000000,255000000.0,201911,1,104.0,0
2019,노원구,월계동,37.62177295286295,127.06043384981308,12.0,대동아파트,59.76,1,386000000,388111000.0,201911,1,101.0,0
2018,강남구,도곡동,37.48800336782093,127.05352806222774,29.0,타워팰리스1차오피스텔,137.24,1,2300000000,2259000000.0,201911,1,98.0,0
2019,종로구,창신동,37.5773578,127.0099105,7.0,엠아이디그린아파트,59.01,1,250000000,251000100.0,201911,1,100.0,0
2019,강남구,삼성동,37.5177638793405,127.0486762578986,6.0,삼성동롯데아파트,42.44,1,790000000,842008100.0,201911,1,107.0,1
2019,서초구,방배동,37.48352459349134,126.99194074218283,8.0,방배브라운가아파트,124.67,1,1240000000,1383999000.0,201911,1,112.0,0
2018,강동구,암사동,37.555499109211,127.13181080868,4.0,한강현대아파트,42.47,1,328500000,499996597.0,201911,1,152.0,1
2019,도봉구,방학동,37.6610347,127.0297285,10.0,신동아1단지아파트,70.62,1,308000000,286440200.0,201911,1,93.0,0
2019,노원구,상계동,37.6792898009038,127.05702069207815,4.0,수락파크빌아파트,114.82,1,590000000,598500000.0,201911,1,101.0,0
2019,동대문구,답십리동,37.57153167026245,127.05339534973088,5.0,래미안위브아파트,121.66,1,1160000000,1178000000.0,201911,1,102.0,1
2019,노원구,월계동,37.62652099026391,127.06415784234936,2.0,월계삼호4차아파트,25.09,1,210000000,195302678.0,201911,1,93.0,0
2018,강서구,등촌동,37.5576955333808,126.857166441402,9.0,서광등촌마을아파트,59.67,1,505000000,541190000.0,201911,1,107.0,0
2018,강남구,압구정동,37.52915641432131,127.03816675906688,8.0,한양3차아파트,49.98,1,1640000000,1815000000.0,201911,1,111.0,0
2019,종로구,내수동,37.57358930920335,126.97209147325847,11.0,경희궁의아침3단지오피스텔,174.55,1,1700000000,1657999999.0,201911,1,98.0,0
2019,금천구,시흥동,37.46327871273526,126.90944597880508,10.0,삼익아파트,59.9,1,310000000,343599999.0,201911,1,111.0,0
2018,관악구,봉천동,37.49020798172745,126.95024706445756,18.0,관악드림타운아파트,114.75,1,760000000,736700000.0,201911,1,97.0,0
2019,은평구,불광동,37.61291283426176,126.93324546400952,4.0,불광롯데캐슬아파트,84.99,1,795000000,810000000.0,201911,1,102.0,1
2019,서대문구,홍은동,37.6037068481217,126.9482463837885,9.0,홍은풍림아이원아파트,84.91799999999998,1,452000000,460000000.0,201911,1,102.0,0
2019,은평구,진관동,37.64411774757542,126.92041830833344,8.0,은평뉴타운구파발9단지래미안아파트,134.83,0,767000000,831000000.0,201911,1,108.0,0
2018,광진구,자양동,37.53348704296825,127.0720340763108,2.0,자양8차현대홈타운아파트,40.24,1,460000000,488750000.0,201911,1,106.0,1
2018,도봉구,창동,37.64572784247843,127.03496299345856,1.0,창동한신휴플러스아파트,118.03,1,553000000,513850000.0,201911,1,93.0,0
2018,도봉구,창동,37.646389340456,127.0495623175934,10.0,대우그린아파트,84.93,1,610000000,570336600.0,201911,1,93.0,0
2019,송파구,풍납동,37.53417863241659,127.11375215442318,2.0,미성맨션,116.965,1,798000000,945810000.0,201911,1,119.0,0
2019,강동구,성내동,37.5317804621789,127.134872418351,2.0,태천스마트빌,74.37,1,273000000,333115000.0,201911,1,122.0,0
2019,도봉구,쌍문동,37.64605803937111,127.0263470031207,3.0,백조,98.75,0,252000000,260060000.0,201911,1,103.0,0
2019,강남구,개포동,37.4741097080401,127.053753297319,7.0,현대빌라트,151.05,1,1080000000,1043800000.0,201911,1,97.0,0
2019,강남구,삼성동,37.51346572858703,127.04955006823069,3.0,드림하우스아파트,115.89,1,1050000000,1188999001.0,201911,1,113.0,0
2018,서초구,서초동,37.4981997286681,127.013313721465,22.0,아크로비스타오피스텔,205.07,1,2500000000,2461100000.0,201911,1,98.0,0
2018,동작구,사당동,37.493354858093056,126.9793290490127,4.0,사당삼성아파트,114.69,1,775000000,801018500.0,201911,1,103.0,0
2019,마포구,염리동,37.54332439933669,126.94518317896495,11.0,마포자이1차아파트,12.1,1,171000000,182600000.0,201911,1,107.0,1
2019,구로구,개봉동,37.49006227416668,126.8597874860351,2.0,개봉아이파크아파트,84.98,1,570000000,618600000.0,201911,1,109.0,0
2018,강동구,성내동,37.53138996400037,127.13038357357368,3.0,중앙아파트,165.28,1,780000000,565000000.0,201911,1,72.0,0
2018,성동구,성수동2가,37.546619672957455,127.05973037782698,5.0,금강아미움아파트,81.02,1,647000000,678999900.0,201911,1,105.0,0
2018,중랑구,묵동,37.61586212598735,127.08447745598107,3.0,신내4단지아파트,59.76,1,319000000,391110000.0,201911,1,123.0,0
2018,송파구,방이동,37.5136256226577,127.11948391362304,5.0,신암밀리안아파트,81.03,1,570000000,586660000.0,201911,1,103.0,0
2019,영등포구,신길동,37.502962849901806,126.9096061654484,13.0,신길뉴타운한화꿈에그린아파트,120.694,1,950000000,981000000.0,201910,1,103.0,0
2019,양천구,목동,37.52599561138993,126.87038151563104,37.0,목동트라팰리스웨스턴에비뉴아파트,177.48,1,2140000000,2510000000.0,201910,1,117.0,0
2018,서대문구,홍은동,37.580494895236896,126.93275817507512,7.0,로하스아파트,65.01,1,277000000,313000000.0,201910,1,113.0,1
2019,영등포구,신길동,37.507221,126.9145656,19.0,삼성래미안아파트,114.87,1,716000000,729999999.0,201910,1,102.0,0
2019,강서구,등촌동,37.53764411582893,126.86119197403912,1.0,정우아파트,83.31,1,350000000,315388327.0,201910,1,90.11095057142856,0
2018,강동구,길동,37.5371898887801,127.14417481462476,13.0,길동우성아파트,40.36,1,488000000,461899990.0,201910,1,95.0,0
2018,강동구,명일동,37.5511352619284,127.15229535799152,1.0,명일우성아파트,133.65,1,1070000000,1250013000.0,201910,1,117.0,1
2019,광진구,자양동,37.5280260148759,127.08049787802848,11.0,기산빌라트,186.65,1,1127000000,1172999990.0,201910,1,104.0,1
2019,강동구,암사동,37.55224672809914,127.1266717599396,5.0,선사현대아파트,82.94,1,766000000,786710000.0,201910,1,103.0,0
2019,관악구,신림동,37.460826206133056,126.92783674932998,6.0,국제산장아파트,84.15,1,390000000,395500000.0,201910,1,101.0,1
2018,중구,신당동,37.5513989,127.0059736,5.0,성민아트,59.16,1,185000000,150200100.0,201910,1,81.0,0
2018,서초구,잠원동,37.510766844149416,127.01424229031404,10.0,신반포17차아파트,80.4,1,1840000000,2168880000.0,201910,1,118.0,1
2019,구로구,구로동,37.4943656749447,126.87608007420836,12.0,구로주공1차아파트,73.68,1,650000000,565100000.0,201910,1,87.0,0
2019,강서구,염창동,37.55272507043058,126.86911753741504,13.0,관음삼성아파트,84.93,1,628000000,644100000.0,201910,1,103.0,0
2019,양천구,신정동,37.51904910680163,126.87561507272964,5.0,신정청구아파트,84.99,1,610000000,664886000.0,201910,1,109.0,0
2019,도봉구,방학동,37.65683833800087,127.02174066654904,3.0,우성2차아파트,84.89,1,370000000,308998000.0,201910,1,84.0,0
2018,강서구,가양동,37.56624478062903,126.84895972005737,16.0,강서한강자이아파트,84.99,1,896000000,935000000.0,201910,1,104.0,0
2019,양천구,목동,37.54104621112189,126.8706451332298,4.0,목동근상프리즘아파트,65.4,1,362000000,341000000.0,201910,1,94.0,0
2019,서초구,서초동,37.4981997286681,127.013313721465,37.0,아크로비스타오피스텔,138.96,1,1667000000,1713999999.0,201910,1,103.0,1
2018,송파구,신천동,37.51673488419895,127.10539250274032,22.0,잠실아이스페이스오피스텔,84.11,1,770000000,616000000.0,201910,1,80.0,0
2018,송파구,잠실동,37.50926684745007,127.09427862597954,10.0,레이크팰리스아파트,84.82,1,1612000000,1289600000.0,201910,1,80.0,0
2018,송파구,잠실동,37.51553027373655,127.09471972758642,8.0,잠실주공5단지아파트,110.12,1,2001000000,1600800000.0,201910,1,80.0,0
2019,노원구,하계동,37.63575925826537,127.06160531684242,11.0,학여울청구아파트,84.77,1,638000000,591200200.0,201910,1,92.66460815047022,0
2019,노원구,중계동,37.647097242443294,127.07966758849484,4.0,중계주공7단지아파트,44.1,1,319000000,293703300.0,201910,1,92.07,0
2018,종로구,숭인동,37.57402400120613,127.01600102706112,24.0,롯데캐슬천지인오피스텔,111.73,1,813000000,900000000.0,201910,1,111.0,0
2018,서초구,방배동,37.4915914306677,126.993802252773,3.0,판테옹빌라,224.5,1,1750000000,1400000000.0,201910,1,80.0,0
2018,서대문구,홍은동,37.60260875940582,126.95086536318678,1.0,극동아파트,84.98,1,336000000,268800000.0,201910,1,80.0,0
2018,중구,황학동,37.56719339309214,127.02252050659712,5.0,중구리버빌아파트,82.8,1,380000000,304000000.0,201910,1,80.0,0
2019,은평구,신사동,37.590596665048,126.90387971912232,11.0,이랜드타운아파트,59.982,1,378000000,302400000.0,201910,1,80.0,0
2019,강서구,등촌동,37.54391753935604,126.86022983444474,6.0,등촌아이파크아파트,67.44,1,407500000,407500000.0,201910,1,100.0,1
2019,영등포구,영등포동,37.51185180912726,126.90237014189154,2.0,영등포푸르지오아파트,84.90799999999999,1,830000000,664000000.0,201910,1,80.0,0
2018,동대문구,청량리동,37.58497567568795,127.046351467213,4.0,현대아파트,128.57,1,767000000,613600000.0,201910,1,80.0,0
2018,강동구,천호동,37.542263065215465,127.13997301598556,1.0,천호2차이룸아파트,41.91,1,222000000,177600000.0,201910,1,80.0,0
2019,광진구,광장동,37.5522863388233,127.10861918517,2.0,워커힐아파트,162.41,1,1630000000,1304000000.0,201910,1,80.0,0
2019,중랑구,신내동,37.60519184911188,127.10146174385793,22.0,새한아파트,115.84,1,484000000,531000000.0,201910,1,110.0,0
2019,노원구,중계동,37.64784339424072,127.0846451091211,6.0,중계현대2차아파트,84.78,1,428000000,435000000.0,201910,1,101.6355140186916,0
2018,용산구,이태원동,37.53508030960208,126.9966374027152,9.0,메이아파트,164.76,1,1990000000,1632000000.0,201910,1,82.0,0
2018,용산구,이촌동,37.520056108361096,126.97453445195448,1.0,로얄맨숀,85.95,1,420000000,430130000.0,201910,1,102.0,0
2018,서대문구,남가좌동,37.57793474577596,126.91656163623432,7.0,DMC래미안클라시스아파트,59.59,1,470000000,521380000.0,201910,1,111.0,0
2019,은평구,불광동,37.62055159831466,126.92745610139124,1.0,금상아파트,84.95,1,306000000,331000000.0,201910,1,108.0,0
2018,광진구,자양동,37.528948772944766,127.0789670449909,19.0,경남아파트,114.97,1,726000000,831777000.0,201909,1,115.0,0
2018,중랑구,신내동,37.61363397657145,127.09513963308686,7.0,신내8단지두산화성아파트,84.99,1,570000000,456000000.0,201909,1,80.0,0
2018,송파구,잠실동,37.51293085517571,127.08146118769716,6.0,잠실엘스아파트,59.96,1,1460000000,1168000000.0,201909,1,80.0,0
2018,송파구,풍납동,37.52942952645229,127.11274031230222,17.0,한강극동아파트,114.76,1,900000000,988822000.0,201909,1,110.0,0
2019,노원구,공릉동,37.62398920896834,127.07902216187632,11.0,대아아파트,78.68,1,372000000,345190000.0,201909,1,92.79301075268818,0
2019,노원구,월계동,37.63169155546426,127.05170957501532,5.0,청백4단지아파트,59.4,1,306000000,284800000.0,201909,1,93.0718954248366,0
2019,도봉구,방학동,37.6606676527166,127.029398553672,13.0,신동아1단지아파트,126.89,1,566000000,521799999.0,201909,1,92.1908125441696,0
2018,서초구,방배동,37.4922842,126.9969283,5.0,성지 라빌레뜨 B,216.36,1,1920000000,1921000000.0,201909,1,100.0,0
2018,광진구,자양동,37.5319927348152,127.090962869109,2.0,자양한양아파트,137.45,1,1220000000,1222000000.0,201909,1,100.0,0
2018,동대문구,장안동,37.57106784876167,127.07023759632398,9.0,청솔오피스텔,59.78,1,350000000,280000000.0,201909,1,80.0,0
2018,성북구,하월곡동,37.6019886657691,127.040169848552,16.0,코업스타클래스오피스텔,170.45,1,1260000000,806400000.0,201909,1,64.0,0
2019,노원구,하계동,37.63248141876827,127.07130024002107,6.0,청솔아파트,39.78,1,260000000,260000000.0,201909,1,100.0,0
2018,동작구,노량진동,37.5075001627655,126.944345294285,1.0,신동아리버파크아파트,84.88,1,738000000,590400000.0,201909,1,80.0,0
2018,서초구,서초동,37.49018465890432,127.01044359055118,2.0,서초월드메르디앙아파트,156.98,1,1210000000,1211500000.0,201909,1,100.0,0
2018,종로구,내수동,37.57417999055894,126.97056302990757,7.0,파크팰리스아파트,148.09,1,1510000000,1208000000.0,201909,1,80.0,0
2019,동작구,사당동,37.48949025320988,126.97385282042934,8.0,이수역리가아파트,84.84700000000002,1,1040000000,1069878000.0,201909,1,103.0,0
2019,동작구,사당동,37.48949025320988,126.97385282042934,8.0,이수역리가아파트,84.96,1,1050000000,1058750000.0,201909,1,101.0,0
2019,동작구,사당동,37.48949025320988,126.97385282042934,5.0,이수역리가아파트,84.98299999999998,1,1010000000,1038000000.0,201909,1,103.0,0
2018,서초구,방배동,37.49714044981198,126.98974090077334,9.0,삼호4차아파트,164.97,1,1950000000,2235500000.0,201909,1,115.0,0
2018,강서구,방화동,37.57088920087895,126.80679480031296,6.0,방화도시개발12단지아파트,29.67,1,181000000,184000000.0,201909,1,102.0,0
2019,구로구,개봉동,37.48467909491101,126.85194169123484,8.0,개봉한진타운아파트,114.93,1,596000000,596010000.0,201909,1,100.001677852349,0
2019,동대문구,장안동,37.5689333,127.0703215,9.0,서희스타힐스,51.07,1,330000000,264000000.0,201909,1,80.0,0
2019,노원구,중계동,37.6519374206869,127.079523177081,5.0,라이프청구신동아아파트,115.47,1,950000000,760000000.0,201909,1,80.0,0
2019,도봉구,방학동,37.6610347,127.0297285,1.0,신동아1단지아파트,126.89,1,436000000,348800000.0,201909,1,80.0,0
2019,노원구,공릉동,37.62726810471624,127.06861273855571,13.0,공릉3단지라이프아파트,34.44,1,221000000,207460000.0,201909,1,93.8733031674208,0
2018,금천구,시흥동,37.449368038239406,126.91070589589842,8.0,건영2차아파트,61.23,1,295000000,270490000.0,201909,1,92.0,0
2019,양천구,목동,37.53541313643856,126.86737371672054,6.0,에이스아파트,83.09,1,424000000,412999999.0,201909,1,97.40566014150944,0
2018,강남구,대치동,37.49808170349893,127.0712174933248,1.0,대치쌍용1차아파트,141.21,1,2100000000,2112200000.0,201909,1,101.0,0
2018,노원구,공릉동,37.62987899077585,127.07192762451872,7.0,공릉삼익4단지아파트,49.5,1,305000000,311700000.0,201909,1,102.1967213114754,0
2018,송파구,가락동,37.4919909359252,127.13355359517703,5.0,프라자아파트,133.76,1,1100000000,880000000.0,201909,1,80.0,0
2019,노원구,상계동,37.6810968943773,127.05375719325038,10.0,은빛1단지아파트,39.7,1,235000000,188000000.0,201909,1,80.0,0
2019,노원구,상계동,37.66740214014491,127.06752077049435,13.0,상계신동아아파트,84.99,1,410000000,373333333.0,201909,1,91.05691048780488,0
2019,중랑구,신내동,37.60519184911188,127.10146174385793,4.0,새한아파트,13.79,1,87500000,75380000.0,201909,1,86.14857142857143,1
2018,동작구,신대방동,37.49143609225211,126.92336565906398,23.0,보라매삼성쉐르빌아파트,120.59,1,791000000,632800000.0,201908,1,80.0,0
2019,영등포구,당산동4가,37.5310849310045,126.89640314954976,6.0,현대3차아파트,84.93,1,783000000,826640000.0,201908,1,106.0,0
2019,구로구,개봉동,37.50448700422172,126.84369631695093,5.0,우성아파트,59.87,1,229000000,231000000.0,201908,1,101.0,0
2018,은평구,불광동,37.6118842620293,126.933879500139,8.0,북한산현대홈타운아파트,84.99600000000002,1,573000000,573000000.0,201908,1,100.0,0
2018,은평구,응암동,37.59921284885765,126.92223156668015,5.0,응암금호아파트,84.93,1,454000000,475897000.0,201908,1,105.0,0
2018,서대문구,연희동,37.57643489423462,126.93917715886542,11.0,성원아파트,84.95,1,570000000,456000000.0,201908,1,80.0,0
2018,용산구,효창동,37.54153462470402,126.9573370480064,3.0,효창한신아파트,71.77,1,600000000,620000000.0,201908,1,103.0,0
2018,양천구,신월동,37.53276676630968,126.83252254697015,15.0,태형아파트,84.75,1,315000000,161280000.0,201908,1,51.2,0
2019,서대문구,충정로3가,37.5632326,126.9639354,7.0,미동아파트,53.157,0,217000000,225670000.0,201908,1,104.0,0
2019,영등포구,신길동,37.5058213977699,126.915221445825,7.0,신길삼성래미안아파트,84.91,1,670000000,536000000.0,201908,1,80.0,0
2018,강동구,길동,37.53801268222193,127.14982016649486,14.0,GS강동자이아파트,126.43,1,980000000,784000000.0,201908,1,80.0,0
2018,강동구,암사동,37.55359376564636,127.13076175764434,9.0,동진아파트,111.4,1,600000000,480000000.0,201908,1,80.0,0
2018,도봉구,쌍문동,37.65703800258918,127.03132368789656,6.0,"한양2,3,4차아파트",35.1,1,163000000,175225000.0,201908,1,108.0,0
2019,강북구,미아동,37.6184432414034,127.013039501497,5.0,SK북한산시티아파트,59.98,1,468000000,374400000.0,201908,1,80.0,0
2018,양천구,신월동,37.534118231784255,126.8238291655869,4.0,금하뜨라네아파트,84.95,1,330000000,295111100.0,201908,1,89.42760606060605,1
2019,강서구,방화동,37.56757576037445,126.80760135920012,7.0,신라힐아파트,66.98,1,332000000,351170000.0,201908,1,106.0,0
2018,구로구,고척동,37.50153862080172,126.86383733540784,22.0,청구아파트,84.87,1,520000000,416000000.0,201908,1,80.0,0
2018,양천구,신월동,37.51709330487288,126.83277476226289,12.0,신월시영아파트,50.67,1,276000000,176640000.0,201908,1,64.0,0
2018,서초구,양재동,37.47058448875404,127.0463474375156,5.0,선경아파트,49.21,1,364373500,333000000.0,201908,1,91.38974157011968,0
2018,영등포구,영등포동1가,37.517253,126.9135389,9.0,헤렌어반,15.537,1,130000000,104000000.0,201908,1,80.0,0
2018,도봉구,창동,37.64314305358211,127.04019879746198,7.0,보람오피스텔,74.59,1,276000000,220800000.0,201908,1,80.0,0
2018,노원구,상계동,37.65496093751854,127.06830730561792,1.0,상계중앙하이츠2차아파트,59.82,1,401000000,320800000.0,201908,1,80.0,0
2018,동대문구,장안동,37.57396497479295,127.07538758267157,4.0,래미안장안2차아파트,64.85,1,582000000,465600000.0,201908,1,80.0,0
2018,중랑구,면목동,37.58087445315167,127.08989471709302,12.0,아람플러스리빙아파트,84.975,1,425000000,442198000.0,201908,1,104.0,0
2019,도봉구,창동,37.65009626254373,127.04433974225616,9.0,창동주공3단지아파트,59.39,1,440000000,483000000.0,201908,1,110.0,0
2018,서초구,잠원동,37.51747344151794,127.01012274950614,10.0,신반포16차아파트,52.32,1,1300000000,1040000000.0,201908,1,80.0,0
2018,강동구,암사동,37.55662489972904,127.1430397571237,1.0,강동롯데캐슬퍼스트아파트,133.97,1,1090000000,872000000.0,201908,1,80.0,0
2018,송파구,풍납동,37.53417863241659,127.11375215442318,8.0,미성맨션,116.965,1,845000000,853990000.0,201908,1,101.0,0
2018,송파구,거여동,37.49688973635329,127.14499293469729,11.0,현대3차아파트,24.27,1,175000000,140000000.0,201908,1,80.0,0
2018,강남구,논현동,37.51307391192652,127.02260942683996,2.0,라디안아파트,113.04,1,780000000,780000000.0,201908,1,100.0,0
2018,영등포구,당산동4가,37.5310849310045,126.89640314954976,9.0,현대3차아파트,59.26,1,595000000,683770000.0,201908,1,115.0,0
2018,강남구,도곡동,37.4854426681306,127.04947389017202,9.0,개포우성4차아파트,28.2,1,563000000,450400000.0,201908,1,80.0,0
2018,강서구,화곡동,37.53009333471815,126.8435727557954,7.0,유림노르웨이숲아파트,76.23,1,399000000,371555500.0,201908,1,93.121679197995,0
2018,송파구,가락동,37.4972250175879,127.12262529956134,5.0,가락현대6차아파트,84.8,1,749000000,599200000.0,201908,1,80.0,0
2018,성동구,용답동,37.56463195739016,127.0531482040464,8.0,덕현해밀아파트,84.99,1,554000000,443200000.0,201908,1,80.0,0
2018,성북구,정릉동,37.617168158918965,127.00094238012554,8.0,피오레1단지아파트,47.295,1,219500000,175600000.0,201908,1,80.0,0
2018,강동구,암사동,37.55060005882447,127.12378889944765,3.0,한강리치팰리스아파트,78.19,1,551000000,440800000.0,201908,1,80.0,0
2018,송파구,가락동,37.49789096114102,127.11628902795366,5.0,가락동부센트레빌아파트,143.02,1,1130000000,904000000.0,201908,1,80.0,0
2018,노원구,상계동,37.64973848455051,127.05894713081828,6.0,상계주공2단지아파트,68.86,1,413000000,505389700.0,201908,1,122.0,0
2018,성북구,정릉동,37.617168158918965,127.00094238012554,9.0,피오레1단지아파트,104.65,1,508000000,325120000.0,201908,1,64.0,0
2018,성북구,정릉동,37.61802224972315,127.00342522848165,5.0,정릉대우아파트,59.98,1,360000000,288000000.0,201908,1,80.0,0
2019,강북구,번동,37.63085303453443,127.0392518896577,3.0,번동주공4단지아파트,59.22,1,347000000,350111000.0,201908,1,101.0,0
2019,동작구,사당동,37.48949025320988,126.97385282042934,3.0,이수역리가아파트,84.84700000000002,1,1020000000,816000000.0,201907,1,80.0,0
2019,동작구,사당동,37.48949025320988,126.97385282042934,3.0,이수역리가아파트,84.98299999999998,1,1020000000,816000000.0,201907,1,80.0,0
2019,동작구,사당동,37.48949025320988,126.97385282042934,4.0,이수역리가아파트,84.84700000000002,1,1020000000,816000000.0,201907,1,80.0,0
2019,동작구,사당동,37.48949025320988,126.97385282042934,4.0,이수역리가아파트,84.98299999999998,1,1020000000,816000000.0,201907,1,80.0,0
2019,동작구,사당동,37.48949025320988,126.97385282042934,6.0,이수역리가아파트,84.84700000000002,1,1080000000,864000000.0,201907,1,80.0,0
2019,동작구,사당동,37.48949025320988,126.97385282042934,16.0,이수역리가아파트,84.84700000000002,1,1130000000,904000000.0,201907,1,80.0,0
2019,동작구,사당동,37.48949025320988,126.97385282042934,6.0,이수역리가아파트,84.96,1,1080000000,864000000.0,201907,1,80.0,0
2019,동작구,사당동,37.48949025320988,126.97385282042934,8.0,이수역리가아파트,84.96,1,1080000000,864000000.0,201907,1,80.0,0
2019,동작구,사당동,37.48949025320988,126.97385282042934,11.0,이수역리가아파트,84.96,1,1080000000,864000000.0,201907,1,80.0,0
2019,동작구,사당동,37.48949025320988,126.97385282042934,4.0,이수역리가아파트,84.98299999999998,1,1020000000,816000000.0,201907,1,80.0,0
2019,동작구,사당동,37.48949025320988,126.97385282042934,14.0,이수역리가아파트,84.84700000000002,1,1130000000,904000000.0,201907,1,80.0,0
2019,동작구,사당동,37.48949025320988,126.97385282042934,3.0,이수역리가아파트,84.72399999999998,1,1020000000,816000000.0,201907,1,80.0,0
2019,동작구,사당동,37.48949025320988,126.97385282042934,5.0,이수역리가아파트,84.72399999999998,1,1020000000,816000000.0,201907,1,80.0,0
2018,노원구,월계동,37.617552298421344,127.06126408168264,8.0,동신아파트,76.78,1,400000000,313800000.0,201907,1,78.45,0
2018,동대문구,이문동,37.59978440549867,127.06851501787186,2.0,쌍용아파트,59.99,1,490000000,392000000.0,201907,1,80.0,0
2019,노원구,공릉동,37.62349981430436,127.08318568498656,10.0,태강아파트,59.38,1,415000000,332000000.0,201907,1,80.0,0
2019,중랑구,면목동,37.58750505698917,127.0754646406228,12.0,면목한신아파트,27.0,1,180000000,144000000.0,201907,1,80.0,0
2019,성북구,하월곡동,37.6073772806315,127.038075319501,15.0,월곡두산위브아파트,114.752,1,680000000,544000000.0,201907,1,80.0,0
2018,서대문구,홍제동,37.585900137118486,126.94156518146282,6.0,엠씨케이(MCK)파크힐아파트,152.3,1,533000000,341120000.0,201907,1,64.0,0
2018,서초구,우면동,37.47259418890746,127.02765614013845,2.0,코오롱아파트,52.47,1,773000000,773000000.0,201907,1,100.0,0
2018,강서구,방화동,37.577000642372525,126.8146637956922,2.0,방화4단지아파트,134.61,1,749000000,683999999.0,201907,1,91.0,0
2018,양천구,신월동,37.5409291354123,126.82704587353,5.0,수명아파트,58.22,1,220000000,190150000.0,201907,1,86.0,0
2018,강동구,명일동,37.5511352619284,127.15229535799152,11.0,명일우성아파트,133.65,1,1140000000,912000000.0,201907,1,80.0,0
2018,도봉구,도봉동,37.687170037253104,127.04369857077506,1.0,우영아파트,71.27,1,208000000,210079000.0,201907,1,101.0,0
2018,노원구,상계동,37.66616680124523,127.0593182791222,11.0,상계주공12단지아파트,49.94,1,403000000,322400000.0,201907,1,80.0,0
2018,노원구,중계동,37.647097242443294,127.07966758849484,8.0,중계주공7단지아파트,44.1,1,310000000,248000000.0,201907,1,80.0,0
2019,도봉구,방학동,37.65880898561742,127.0252590065892,16.0,벽산2차아파트,84.98,1,344000000,361000000.0,201907,1,105.0,0
2019,광진구,자양동,37.53090576875408,127.08415527327772,5.0,YM프라젠스파아파트,125.28,1,662000000,529600000.0,201907,1,80.0,0
2019,노원구,하계동,37.63248141876827,127.07130024002107,10.0,청솔아파트,39.92,1,240000000,271200000.0,201907,1,113.0,0
2018,강남구,도곡동,37.49377988299789,127.05114053767764,2.0,도곡렉슬아파트,134.902,1,2470000000,1976000000.0,201907,1,80.0,0
2018,은평구,대조동,37.609029702508806,126.9217275569109,9.0,삼성타운아파트,59.4,1,372000000,384988100.0,201907,1,103.0,0
2018,양천구,신월동,37.52184650188658,126.83890444182435,3.0,삼백아파트,16.37,1,54000000,43330000.0,201907,1,80.0,0
2018,중랑구,신내동,37.60881411924274,127.09682324495932,2.0,월드크라운아파트,110.11,1,331000000,264800000.0,201907,1,80.0,0
2018,강동구,성내동,37.5234213886515,127.130491879869,12.0,인택스파크뷰오피스텔,142.09,1,1029000000,900000000.0,201907,1,87.0,0
2018,광진구,광장동,37.5522863388233,127.10861918517,4.0,워커힐아파트,196.0,1,2120000000,1840000000.0,201907,1,87.0,0
2018,도봉구,방학동,37.66443713644634,127.03027501447016,1.0,동양크레오아파트,114.988,1,467000000,373600000.0,201907,1,80.0,0
2018,강동구,천호동,37.53599933169301,127.13374065722265,10.0,천호현대아이파크아파트,29.95,1,200000000,183900000.0,201907,1,92.0,0
2019,중랑구,신내동,37.60560022572965,127.10013954725068,1.0,영풍마드레빌아파트,84.84899999999998,1,420000000,445190000.0,201907,1,106.0,0
2018,강서구,화곡동,37.53624513505396,126.84614185784604,7.0,탑건진선미아파트,84.92,1,487000000,426110000.0,201907,1,87.0,0
2018,은평구,증산동,37.586551294769066,126.91087741279706,7.0,자선메르시안아파트(162-20번지),90.69,1,490000000,342324000.0,201907,1,70.0,0
2018,구로구,고척동,37.50333980864576,126.8662723834787,5.0,우성꿈동산아파트,84.19,1,362000000,352300000.0,201907,1,97.0,0
